~VERSION INFORMATION
 VERS.                          2.0   : CWLS LOG ASCII STANDARD - VERSION 2.0
 WRAP.                          NO    : ONE LINE PER DEPTH STEP
#
~Well Information Section
#MNEM     .UNIT     DATA                DESCRIPTION
#-----    -----     --------            --------------
 STRT     .F        10535.0000          : START DEPTH
 STOP     .F        11400.0000          : END DEPTH
 STEP     .F        0.5000              : INCREMENT DEPTH
 NULL     .         -999.2500           : NULL VALUE
 COMP     .                             :
 WELL     .         WELL                : WELL NAME
 EKB      .F        60.0000             : KELLY BUSHING ELEVATION
 EGL      .F        0.0000              : GROUND LEVEL ELEVATION
 FLD      .                              :
 LOC      . X = 529090.0000 Y = 179645.0000: WELL LOCATION
 PROV     .                              :
 SRVC     .                              :
 PROV     .                              :
 DATE     .                              :
 UWI      .         UNIQUE WELL ID       : UNIQUE WELL ID
 API      .                              :
#
~Curve Information Section
#MNEM     .UNIT               Curve #DESCRIPTION
#-----    -----               ----   --------------
 DEPTH    .F                  : 1     Name = Domain Curve - Type = DEPTH
 PhiE     .fraction           : 2     Name = PhiE - Type = Porosity
 PhiT     .fraction           : 3     Name = PhiT - Type = Porosity
 RhoB     .g/c3               : 4     Name = RhoB - Type = Density
 Sw       .0.Sw               : 5     Name = Sw - Type = Water Saturation
 Vp       .m/s                : 6     Name = Vp - Type = P-wave
 Vs       .m/s                : 7     Name = Vs - Type = S-wave
 Vsh      .API                : 8     Name = Vsh - Type = Volumetric
~A (ASCII LOG DATA)
10535.0000       -999.2500       -999.2500       -999.2500       -999.2500       -999.2500       -999.2500       -999.2500
10535.5000          0.1329          0.2426          2.3180          1.0000       3011.8577       1423.9200          0.4521
10536.0000          0.1324          0.2242          2.3570          1.0000       3008.8845       1421.3575          0.4093
10536.5000          0.0932          0.2201          2.4170          1.0000       2953.4883       1373.6115          0.5767
10537.0000          0.1108          0.2133          2.4110          1.0000       2942.0850       1363.7830          0.4806
10537.5000          0.1096          0.2033          2.4090          1.0000       3044.9551       1452.4467          0.4608
10538.0000          0.0761          0.2088          2.4200          1.0000       3060.2412       1465.6218          0.6355
10538.5000          0.0717          0.2041          2.4230          1.0000       3075.6812       1478.9294          0.6486
10539.0000          0.0470          0.1889          2.4070          1.0000       3194.9685       1581.7433          0.7512
10539.5000          0.0598          0.2137          2.3830          1.0000       3017.8218       1429.0605          0.7200
10540.0000          0.0633          0.2158          2.4870          1.0000       3038.8833       1447.2134          0.7065
10540.5000          0.0048          0.2068          2.4090          1.0000       2962.0991       1381.0332          0.9768
10541.0000          0.0582          0.2233          2.4140          1.0000       2982.3875       1398.5197          0.7394
10541.5000          0.0000          0.2332          2.4350          1.0000       3008.8845       1421.3575          1.0000
10542.0000          0.0287          0.2266          2.4170          1.0000       3000.0000       1413.7000          0.8733
10542.5000          0.0142          0.1880          2.4310          1.0000       3035.8567       1444.6047          0.9242
10543.0000          0.0633          0.1783          2.4320          1.0000       3085.0203       1486.9789          0.6453
10543.5000          0.0734          0.2068          2.4860          1.0000       3211.8018       1596.2518          0.6453
10544.0000          0.0100          0.2159          2.4510          1.0000       3309.4463       1680.4116          0.9536
10544.5000          0.0000          0.2005          2.4510          1.0000       3221.9875       1605.0310          1.0000
10545.0000          0.0000          0.1847          2.5050          1.0000       3158.5491       1550.3534          1.0000
10545.5000          0.0484          0.1783          2.4560          1.0000       3191.6230       1578.8599          0.7285
10546.0000          0.0696          0.1954          2.4230          1.0000       3119.7544       1516.9163          0.6437
10546.5000          0.0000          0.2094          2.3860          1.0000       3132.5796       1527.9702          1.0000
10547.0000          0.0000          0.2190          2.3950          1.0000       3235.6689       1616.8230          1.0000
10547.5000          0.0000          0.2787          2.2090          1.0000       3129.3633       1525.1981          1.0000
10548.0000          0.0000          0.3121          2.1590          1.0000       3132.5796       1527.9702          1.0000
10548.5000          0.0000          0.2929          2.2650          1.0000       3116.5645       1514.1669          1.0000
10549.0000          0.0000          0.2745          2.3060          1.0000       2939.2478       1361.3376          1.0000
10549.5000          0.0619          0.2672          2.3250          1.0000       2916.7463       1341.9436          0.7682
10550.0000          0.1251          0.2565          2.3520          1.0000       2791.2090       1233.7429          0.5122
10550.5000          0.0332          0.2335          2.3920          1.0000       2861.9719       1294.7335          0.8577
10551.0000          0.0524          0.2128          2.3540          1.0000       2788.6550       1231.5417          0.7535
10551.5000          0.0000          0.2101          2.3320          1.0000       2806.6299       1247.0342          1.0000
10552.0000          0.0415          0.2076          2.3480          1.0000       2832.7136       1269.5157          0.7999
10552.5000          0.0159          0.1941          2.4080          1.0000       2875.4717       1306.3690          0.9183
10553.0000          0.0036          0.1970          2.4200          1.0000       2872.7617       1304.0332          0.9816
10553.5000          0.0000          0.1975          2.4460          1.0000       2894.5867       1322.8441          1.0000
10554.0000          0.0000          0.1988          2.3670          1.0000       2925.1440       1349.1815          1.0000
10554.5000          0.0396          0.1993          2.3880          1.0000       3005.9172       1418.7999          0.8014
10555.0000          0.0816          0.2176          2.3590          1.0000       2985.3083       1401.0372          0.6247
10555.5000          0.1379          0.2472          2.3400          1.0000       2994.1060       1408.6199          0.4421
10556.0000          0.1417          0.2586          2.3620          1.0000       2944.9275       1366.2329          0.4522
10556.5000          0.0990          0.2392          2.3720          1.0000       2851.2627       1285.5033          0.5862
10557.0000          0.0596          0.2500          2.3470          1.0000       2840.6335       1276.3419          0.7615
10557.5000          0.0000          0.2562          2.3590          1.0000       2853.9324       1287.8042          1.0000
10558.0000          0.0000          0.2424          2.3810          1.0000       2859.2871       1292.4194          1.0000
10558.5000          0.0000          0.2232          2.4200          1.0000       2894.5867       1322.8441          1.0000
10559.0000          0.0000          0.2157          2.3930          1.0000       3054.1082       1460.3357          1.0000
10559.5000          0.0060          0.2108          2.4420          1.0000       3122.9507       1519.6711          0.9715
10560.0000          0.0000          0.2003          2.5100          1.0000       3168.3994       1558.8434          1.0000
10560.5000          0.0000          0.1996          2.4370          1.0000       3100.7122       1500.5037          1.0000
10561.0000          0.0000          0.2228          2.4150          1.0000       2988.2354       1403.5599          1.0000
10561.5000          0.0000          0.2542          2.2940          1.0000       2922.3394       1346.7642          1.0000
10562.0000          0.0000          0.2698          2.2670          1.0000       2851.2627       1285.5033          1.0000
10562.5000          0.0000          0.2582          2.3240          1.0000       2814.4043       1253.7350          1.0000
10563.0000          0.0000          0.2462          2.3720          1.0000       2822.2222       1260.4733          1.0000
10563.5000          0.0000          0.2667          2.4050          1.0000       2867.3564       1299.3744          1.0000
10564.0000          0.0000          0.2632          2.4210          1.0000       2872.7617       1304.0332          1.0000
10564.5000          0.0066          0.2676          2.3980          1.0000       2878.1870       1308.7094          0.9753
10565.0000          0.0347          0.2898          2.4060          1.0000       2976.5625       1393.4991          0.8802
10565.5000          0.0686          0.3058          2.3480          1.0000       2988.2354       1403.5599          0.7757
10566.0000          0.0208          0.2651          2.3750          1.0000       2870.0566       1301.7018          0.9216
10566.5000          0.0572          0.2654          2.3250          1.0000       2822.2222       1260.4733          0.7846
10567.0000          0.0168          0.2566          2.3440          1.0000       2796.3301       1238.1569          0.9347
10567.5000          0.0338          0.2322          2.3670          1.0000       2763.3726       1209.7507          0.8545
