~VERSION INFORMATION
 VERS.                          2.0   : CWLS LOG ASCII STANDARD - VERSION 2.0
 WRAP.                          NO    : ONE LINE PER DEPTH STEP
#
~Well Information Section
#MNEM     .UNIT     DATA                DESCRIPTION
#-----    -----     --------            --------------
 STRT     .F        10535.0000          : START DEPTH
 STOP     .F        11400.0000          : END DEPTH
 STEP     .F        0.5000              : INCREMENT DEPTH
 NULL     .         -999.2500           : NULL VALUE
 COMP     .                             :
 WELL     .         WELL                : WELL NAME
 EKB      .F        60.0000             : KELLY BUSHING ELEVATION
 EGL      .F        0.0000              : GROUND LEVEL ELEVATION
 FLD      .                              :
 LOC      . X = 529090.0000 Y = 179645.0000: WELL LOCATION
 PROV     .                              :
 SRVC     .                              :
 PROV     .                              :
 DATE     .                              :
 UWI      .         UNIQUE WELL ID       : UNIQUE WELL ID
 API      .                              :
#
~Curve Information Section
#MNEM     .UNIT               Curve #DESCRIPTION
#-----    -----               ----   --------------
 DEPTH    .F                  : 1     Name = Domain Curve - Type = DEPTH
 PhiE     .fraction           : 2     Name = PhiE - Type = Porosity
 PhiT     .fraction           : 3     Name = PhiT - Type = Porosity
 RhoB     .g/c3               : 4     Name = RhoB - Type = Density
 Sw       .0.Sw               : 5     Name = Sw - Type = Water Saturation
 Vp       .m/s                : 6     Name = Vp - Type = P-wave
 Vs       .m/s                : 7     Name = Vs - Type = S-wave
 Vsh      .API                : 8     Name = Vsh - Type = Volumetric
~A (ASCII LOG DATA)
# ...
10964.0000          0.1602          0.2378          2.3950          1.0000       3451.8684       1803.1653          0.3265
10964.5000          0.0793          0.2574          2.3890          1.0000       3316.6484       1686.6191          0.6921
10965.0000          0.0581          0.2522          2.3610          1.0000       3155.2795       1547.5354          0.7696
10965.5000          0.0000          0.2272          2.3800          1.0000       3063.3167       1468.2726          1.0000
10966.0000          0.0000          0.2130          2.3970          1.0000       2944.9275       1366.2329          1.0000
10966.5000          0.0000          0.2146          2.4170          1.0000       3011.8577       1423.9200          1.0000
10967.0000          0.0604          0.2068          2.4370          1.0000       3148.7603       1541.9164          0.7081
10967.5000          0.0971          0.1910          2.4350          1.0000       3235.6689       1616.8230          0.4913
10968.0000          0.1324          0.1847          2.4420          1.0000       3353.1353       1718.0671          0.2830
10968.5000          0.1393          0.1943          2.4730          1.0000       3463.6365       1813.3082          0.2830
10969.0000          0.1500          0.1952          2.4690          1.0000       3463.6365       1813.3082          0.2316
10969.5000          0.1234          0.1913          2.4760          1.0000       3405.5864       1763.2749          0.3548
10970.0000          0.1183          0.1926          2.4940          1.0000       3417.0405       1773.1471          0.3859
10970.5000          0.1023          0.1934          2.4710          1.0000       3331.1475       1699.1158          0.4709
10971.0000          0.0922          0.1788          2.4550          1.0000       3291.5767       1665.0099          0.4846
10971.5000          0.1062          0.1918          2.4370          1.0000       3309.4463       1680.4116          0.4463
10972.0000          0.1322          0.2035          2.4780          1.0000       3342.1052       1708.5604          0.3505
10972.5000          0.1557          0.2203          2.4710          1.0000       3305.8569       1677.3180          0.2934
10973.0000          0.1701          0.2150          2.4770          0.9735       3382.9080       1743.7283          0.2089
10973.5000          0.1834          0.2098          2.4870          0.9076       3527.7776       1868.5914          0.1259
10974.0000          0.1858          0.2235          2.4420          0.9009       3475.4849       1823.5203          0.1684
10974.5000          0.1187          0.2082          2.4650          1.0000       3447.9639       1799.7999          0.4298
10975.0000          0.0123          0.1873          2.4800          1.0000       3334.7920       1702.2571          0.9343
10975.5000          0.0000          0.1716          2.4910          1.0000       3178.3105       1567.3857          1.0000
10976.0000          0.0261          0.1665          2.4860          1.0000       3119.7544       1516.9163          0.8434
10976.5000          0.0168          0.1656          2.4660          1.0000       3155.2795       1547.5354          0.8983
10977.0000          0.0417          0.1715          2.4500          1.0000       3158.5491       1550.3534          0.7569
10977.5000          0.0219          0.1724          2.4710          1.0000       3191.6230       1578.8599          0.8732
10978.0000          0.0349          0.1758          2.4710          1.0000       3295.1353       1668.0770          0.8013
10978.5000          0.0407          0.1757          2.4720          1.0000       3394.2090       1753.4686          0.7681
10979.0000          0.0745          0.1917          2.4470          1.0000       3302.2751       1674.2308          0.6112
10979.5000          0.0509          0.2185          2.4620          1.0000       3235.6689       1616.8230          0.7668
10980.0000          0.0063          0.2357          2.4380          1.0000       3038.8833       1447.2134          0.9733
10980.5000          0.0000          0.2569          2.4350          1.0000       2970.7603       1388.4982          1.0000
10981.0000          0.0000          0.2613          2.4540          1.0000       2988.2354       1403.5599          1.0000
10981.5000          0.0000          0.2316          2.4170          1.0000       2916.7463       1341.9436          1.0000
10982.0000          0.0000          0.2071          2.4420          1.0000       2922.3394       1346.7642          1.0000
10982.5000          0.0000          0.1908          2.5270          1.0000       2911.1748       1337.1415          1.0000
10983.0000          0.0000          0.2063          2.4830          1.0000       2985.3083       1401.0372          1.0000
10983.5000          0.0621          0.2241          2.4610          1.0000       3038.8833       1447.2134          0.7229
10984.0000          0.0837          0.2231          2.4830          1.0000       3029.8210       1439.4027          0.6249
10984.5000          0.0435          0.2196          2.4540          1.0000       3063.3167       1468.2726          0.8018
10985.0000          0.0000          0.2249          2.4430          1.0000       3048.0000       1455.0712          1.0000
10985.5000          0.0000          0.2278          2.4510          1.0000       3008.8845       1421.3575          1.0000
10986.0000          0.0558          0.2252          2.4960          1.0000       2985.3083       1401.0372          0.7521
10986.5000          0.0617          0.2226          2.4830          1.0000       2959.2234       1378.5546          0.7230
10987.0000          0.0648          0.1946          2.4570          1.0000       2962.0991       1381.0332          0.6669
10987.5000          0.0413          0.1807          2.4800          1.0000       2953.4883       1373.6115          0.7713
10988.0000          0.0697          0.1937          2.4710          1.0000       3168.3994       1558.8434          0.6400
10988.5000          0.0985          0.2061          2.5160          1.0000       3063.3167       1468.2726          0.5218
10989.0000          0.0985          0.2198          2.4500          1.0000       3020.8125       1431.6382          0.5521
10989.5000          0.0284          0.2176          2.4930          1.0000       2979.4722       1396.0070          0.8694
10990.0000          0.0000          0.2054          2.4780          1.0000       2809.2166       1249.2637          1.0000
10990.5000          0.0000          0.1872          2.4730          1.0000       2883.6328       1313.4031          1.0000
10991.0000          0.0000          0.1731          2.5070          1.0000       2911.1748       1337.1415          1.0000
10991.5000          0.0000          0.1734          2.5220          1.0000       3005.9172       1418.7999          1.0000
10992.0000          0.0000          0.1773          2.4630          1.0000       3129.3633       1525.1981          1.0000
10992.5000          0.0000          0.1728          2.5200          1.0000       3097.5608       1497.7876          1.0000
10993.0000          0.0061          0.1760          2.4580          1.0000       3184.9531       1573.1110          0.9655
10993.5000          0.0000          0.1730          2.4670          1.0000       3171.6960       1561.6847          1.0000
10994.0000          0.0358          0.1817          2.4500          1.0000       3215.1897       1599.1719          0.8030
10994.5000          0.0738          0.1902          2.4420          1.0000       3235.6689       1616.8230          0.6121
10995.0000          0.0854          0.1791          2.4710          1.0000       3228.8137       1610.9144          0.5230
10995.5000          0.0310          0.1743          2.4650          1.0000       3165.1091       1556.0074          0.8224
10996.0000          0.0000          0.1756          2.5120          1.0000       3066.3982       1470.9285          1.0000
10996.5000          0.0000          0.1731          2.5160          1.0000       3201.6807       1587.5284          1.0000
