~VERSION INFORMATION
 VERS.                          2.0   : CWLS LOG ASCII STANDARD - VERSION 2.0
 WRAP.                          NO    : ONE LINE PER DEPTH STEP
#
~Well Information Section
#MNEM     .UNIT     DATA                DESCRIPTION
#-----    -----     --------            --------------
 STRT     .F        10535.0000          : START DEPTH
 STOP     .F        11400.0000          : END DEPTH
 STEP     .F        0.5000              : INCREMENT DEPTH
 NULL     .         -999.2500           : NULL VALUE
 COMP     .                             :
 WELL     .         WELL                : WELL NAME
 EKB      .F        60.0000             : KELLY BUSHING ELEVATION
 EGL      .F        0.0000              : GROUND LEVEL ELEVATION
 FLD      .                              :
 LOC      . X = 529090.0000 Y = 179645.0000: WELL LOCATION
 PROV     .                              :
 SRVC     .                              :
 PROV     .                              :
 DATE     .                              :
 UWI      .         UNIQUE WELL ID       : UNIQUE WELL ID
 API      .                              :
#
~Curve Information Section
#MNEM     .UNIT               Curve #DESCRIPTION
#-----    -----               ----   --------------
 DEPTH    .F                  : 1     Name = Domain Curve - Type = DEPTH
 PhiE     .fraction           : 2     Name = PhiE - Type = Porosity
 PhiT     .fraction           : 3     Name = PhiT - Type = Porosity
 RhoB     .g/c3               : 4     Name = RhoB - Type = Density
 Sw       .0.Sw               : 5     Name = Sw - Type = Water Saturation
 Vp       .m/s                : 6     Name = Vp - Type = P-wave
 Vs       .m/s                : 7     Name = Vs - Type = S-wave
 Vsh      .API                : 8     Name = Vsh - Type = Volumetric
~A (ASCII LOG DATA)
# ...
10865.0000          0.0450          0.2287          2.4320          1.0000       2944.9275       1366.2329          0.8031
10865.5000          0.0000          0.2200          2.3960          1.0000       2997.0503       1411.1576          1.0000
10866.0000          0.0000          0.2113          2.4290          1.0000       3005.9172       1418.7999          1.0000
10866.5000          0.0000          0.2068          2.4610          1.0000       3051.0510       1457.7008          1.0000
10867.0000          0.0000          0.2083          2.4730          1.0000       3017.8218       1429.0605          1.0000
10867.5000          0.0000          0.2249          2.4360          1.0000       3026.8123       1436.8094          1.0000
10868.0000          0.0000          0.2239          2.4760          1.0000       3041.9163       1449.8275          1.0000
10868.5000          0.0337          0.2317          2.5230          1.0000       3014.8369       1426.4878          0.8545
10869.0000          0.0460          0.2314          2.5130          1.0000       3020.8125       1431.6382          0.8013
10869.5000          0.0000          0.2293          2.4790          1.0000       3048.0000       1455.0712          1.0000
10870.0000          0.0000          0.2311          2.4640          1.0000       3054.1082       1460.3357          1.0000
10870.5000          0.0000          0.2185          2.5470          1.0000       3060.2412       1465.6218          1.0000
10871.0000          0.0000          0.2379          2.4290          1.0000       3075.6812       1478.9294          1.0000
10871.5000          0.0000          0.2490          2.4220          1.0000       3008.8845       1421.3575          1.0000
10872.0000          0.0000          0.2252          2.4350          1.0000       3023.8093       1434.2212          1.0000
10872.5000          0.0000          0.2216          2.3820          1.0000       2970.7603       1388.4982          1.0000
10873.0000          0.0000          0.2250          2.3840          1.0000       2944.9275       1366.2329          1.0000
10873.5000          0.0000          0.2310          2.3900          1.0000       2939.2478       1361.3376          1.0000
10874.0000          0.0000          0.2365          2.3670          1.0000       2889.0996       1318.1149          1.0000
10874.5000          0.0000          0.2515          2.3610          1.0000       2897.3386       1325.2161          1.0000
10875.0000          0.0000          0.2314          2.4260          1.0000       2922.3394       1346.7642          1.0000
10875.5000          0.0000          0.2332          2.4640          1.0000       2953.4883       1373.6115          1.0000
10876.0000          0.0000          0.2591          2.4110          1.0000       2962.0991       1381.0332          1.0000
10876.5000          0.0000          0.2548          2.4290          1.0000       2967.8677       1386.0051          1.0000
10877.0000          0.0000          0.2476          2.5110          1.0000       2930.7693       1354.0299          1.0000
10877.5000          0.0000          0.2401          2.4700          1.0000       2927.9539       1351.6034          1.0000
10878.0000          0.0000          0.2404          2.4780          1.0000       2913.9578       1339.5402          1.0000
10878.5000          0.0000          0.2352          2.4870          1.0000       2897.3386       1325.2161          1.0000
10879.0000          0.0000          0.2345          2.5270          1.0000       2911.1748       1337.1415          1.0000
10879.5000          0.0000          0.2274          2.5130          1.0000       2950.6292       1371.1472          1.0000
10880.0000          0.0000          0.2428          2.4960          1.0000       3008.8845       1421.3575          1.0000
10880.5000          0.0000          0.2506          2.5160          1.0000       3091.2781       1492.3724          1.0000
10881.0000          0.0283          0.2402          2.4760          1.0000       3103.8699       1503.2253          0.8822
10881.5000          0.1203          0.2486          2.4530          1.0000       3107.0337       1505.9523          0.5161
10882.0000          0.1093          0.2480          2.4620          1.0000       3119.7544       1516.9163          0.5594
10882.5000          0.0782          0.2439          2.4700          1.0000       3100.7122       1500.5037          0.6791
10883.0000          0.0058          0.2543          2.4620          1.0000       3103.8699       1503.2253          0.9773
10883.5000          0.0806          0.2514          2.4680          1.0000       3081.9009       1484.2903          0.6794
10884.0000          0.0066          0.2450          2.4650          1.0000       3002.9556       1416.2473          0.9731
10884.5000          0.0000          0.2480          2.4630          1.0000       2939.2478       1361.3376          1.0000
10885.0000          0.0000          0.2562          2.4780          1.0000       2894.5867       1322.8441          1.0000
10885.5000          0.0543          0.2539          2.5290          1.0000       2883.6328       1313.4031          0.7861
10886.0000          0.0000          0.2519          2.4900          1.0000       2905.6245       1332.3577          1.0000
10886.5000          0.0000          0.2347          2.5180          1.0000       2956.3530       1376.0806          1.0000
10887.0000          0.0198          0.2175          2.4580          1.0000       2942.0850       1363.7830          0.9091
10887.5000          0.1144          0.2200          2.4450          1.0000       2967.8677       1386.0051          0.4799
10888.0000          0.1337          0.2480          2.4370          1.0000       3011.8577       1423.9200          0.4610
10888.5000          0.0495          0.2335          2.4420          1.0000       2976.5625       1393.4991          0.7879
10889.0000          0.0051          0.2292          2.4220          1.0000       2973.6584       1390.9961          0.9775
10889.5000          0.0141          0.2238          2.4370          1.0000       2962.0991       1381.0332          0.9368
10890.0000          0.0919          0.2308          2.4510          1.0000       2905.6245       1332.3577          0.6020
10890.5000          0.1449          0.2569          2.4480          1.0000       2853.9324       1287.8042          0.4361
10891.0000          0.1264          0.2910          2.4210          1.0000       2793.7671       1235.9478          0.5655
10891.5000          0.1337          0.2992          2.4490          1.0000       2801.4705       1242.5873          0.5532
10892.0000          0.1004          0.2762          2.4250          1.0000       2745.9460       1194.7308          0.6366
10892.5000          0.1159          0.2590          2.4770          1.0000       2765.8804       1211.9122          0.5524
10893.0000          0.1094          0.2726          2.4330          1.0000       2731.1829       1182.0065          0.5989
10893.5000          0.0810          0.2762          2.4840          1.0000       2676.0315       1134.4714          0.7066
10894.0000          0.0008          0.2794          2.4730          1.0000       2702.1277       1156.9637          0.9973
10894.5000          0.0000          0.2744          2.4680          1.0000       2657.3669       1118.3845          1.0000
10895.0000          0.0000          0.2814          2.4890          1.0000       2671.3408       1130.4286          1.0000
10895.5000          0.0000          0.3030          2.4690          1.0000       2625.3230       1090.7659          1.0000
10896.0000          0.0000          0.3014          2.4930          1.0000       2680.7390       1138.5289          1.0000
10896.5000          0.0000          0.2766          2.5120          1.0000       2714.1582       1167.3329          1.0000
10897.0000          0.0000          0.2536          2.4860          1.0000       2758.3711       1205.4399          1.0000
10897.5000          0.0398          0.2432          2.4900          1.0000       2835.3489       1271.7871          0.8363
