~VERSION INFORMATION
 VERS.                          2.0   : CWLS LOG ASCII STANDARD - VERSION 2.0
 WRAP.                          NO    : ONE LINE PER DEPTH STEP
#
~Well Information Section
#MNEM     .UNIT     DATA                DESCRIPTION
#-----    -----     --------            --------------
 STRT     .F        10535.0000          : START DEPTH
 STOP     .F        11400.0000          : END DEPTH
 STEP     .F        0.5000              : INCREMENT DEPTH
 NULL     .         -999.2500           : NULL VALUE
 COMP     .                             :
 WELL     .         WELL                : WELL NAME
 EKB      .F        60.0000             : KELLY BUSHING ELEVATION
 EGL      .F        0.0000              : GROUND LEVEL ELEVATION
 FLD      .                              :
 LOC      . X = 529090.0000 Y = 179645.0000: WELL LOCATION
 PROV     .                              :
 SRVC     .                              :
 PROV     .                              :
 DATE     .                              :
 UWI      .         UNIQUE WELL ID       : UNIQUE WELL ID
 API      .                              :
#
~Curve Information Section
#MNEM     .UNIT               Curve #DESCRIPTION
#-----    -----               ----   --------------
 DEPTH    .F                  : 1     Name = Domain Curve - Type = DEPTH
 PhiE     .fraction           : 2     Name = PhiE - Type = Porosity
 PhiT     .fraction           : 3     Name = PhiT - Type = Porosity
 RhoB     .g/c3               : 4     Name = RhoB - Type = Density
 Sw       .0.Sw               : 5     Name = Sw - Type = Water Saturation
 Vp       .m/s                : 6     Name = Vp - Type = P-wave
 Vs       .m/s                : 7     Name = Vs - Type = S-wave
 Vsh      .API                : 8     Name = Vsh - Type = Volumetric
~A (ASCII LOG DATA)
# ...
10766.0000          0.0000          0.2175          2.3690          1.0000       3221.9875       1605.0310          1.0000
10766.5000          0.0000          0.2133          2.3860          1.0000       3225.3967       1607.9694          1.0000
10767.0000          0.0220          0.2032          2.5290          1.0000       3284.4824       1658.8953          0.8917
10767.5000          0.0596          0.1707          2.4790          1.0000       3401.7859       1759.9991          0.6508
10768.0000          0.0622          0.1931          2.3450          1.0000       3499.4263       1844.1554          0.6780
10768.5000          0.0547          0.1864          2.4680          1.0000       3585.8823       1918.6719          0.7066
10769.0000          0.0000          0.1878          2.4760          1.0000       3795.7659       2099.5706          1.0000
10769.5000          0.0291          0.1982          2.4260          1.0000       3699.0291       2016.1930          0.8530
10770.0000          0.0000          0.1992          2.4200          1.0000       3585.8823       1918.6719          1.0000
10770.5000          0.0409          0.1887          2.4390          1.0000       3194.9685       1581.7433          0.7832
10771.0000          0.0000          0.1861          2.4420          1.0000       2964.9805       1383.5166          1.0000
10771.5000          0.0000          0.1901          2.4800          1.0000       3008.8845       1421.3575          1.0000
10772.0000          0.0000          0.1904          2.4260          1.0000       3145.5107       1539.1156          1.0000
10772.5000          0.0335          0.1879          2.4500          1.0000       3327.5112       1695.9818          0.8216
10773.0000          0.0400          0.1880          2.4930          1.0000       3479.4521       1826.9397          0.7873
10773.5000          0.0000          0.1954          2.4460          1.0000       3447.9639       1799.7999          1.0000
10774.0000          0.0005          0.1982          2.4370          1.0000       3507.4797       1851.0967          0.9973
10774.5000          0.0167          0.1903          2.4530          1.0000       3499.4263       1844.1554          0.9122
10775.0000          0.0933          0.1871          2.4420          1.0000       3499.4263       1844.1554          0.5012
10775.5000          0.0085          0.1902          2.4450          1.0000       3471.5259       1820.1080          0.9554
10776.0000          0.0000          0.1910          2.4510          1.0000       3428.5715       1783.0857          1.0000
10776.5000          0.0000          0.1957          2.4790          1.0000       3475.4849       1823.5203          1.0000
10777.0000          0.0280          0.1926          2.4570          1.0000       3432.4324       1786.4133          0.8546
10777.5000          0.0666          0.1832          2.4760          1.0000       3375.4150       1737.2701          0.6366
10778.0000          0.0920          0.1918          2.4150          1.0000       3367.9558       1730.8411          0.5200
10778.5000          0.1214          0.2024          2.4090          1.0000       3475.4849       1823.5203          0.4000
10779.0000          0.1214          0.1882          2.4460          1.0000       3544.1860       1882.7339          0.3548
10779.5000          0.0650          0.1798          2.4650          1.0000       3607.1006       1936.9598          0.6387
10780.0000          0.0764          0.1860          2.4820          1.0000       3577.4648       1911.4169          0.5893
10780.5000          0.0691          0.1783          2.5360          1.0000       3487.4141       1833.8021          0.6127
10781.0000          0.1096          0.1830          2.5230          1.0000       3451.8684       1803.1653          0.4010
10781.5000          0.0916          0.1912          2.5020          1.0000       3479.4521       1826.9397          0.5208
10782.0000          0.0677          0.1868          2.5010          1.0000       3475.4849       1823.5203          0.6376
10782.5000          0.0365          0.1836          2.5120          1.0000       3467.5769       1816.7045          0.8014
10783.0000          0.0220          0.1739          2.4850          1.0000       3483.4285       1830.3669          0.8733
10783.5000          0.0573          0.1763          2.4620          1.0000       3455.7825       1806.5388          0.6751
10784.0000          0.1144          0.1833          2.4480          1.0000       3602.8369       1933.2850          0.3757
10784.5000          0.1496          0.1853          2.4110          1.0000       3767.6143       2075.3066          0.1927
10785.0000          0.1460          0.1759          2.4590          1.0000       3848.4851       2145.0093          0.1703
10785.5000          0.1316          0.1757          2.4930          1.0000       3672.2891       1993.1459          0.2510
10786.0000          0.0486          0.1844          2.4440          1.0000       3577.4648       1911.4169          0.7366
10786.5000          0.0000          0.1808          2.4590          1.0000       3367.9558       1730.8411          1.0000
10787.0000          0.0000          0.1612          2.4700          1.0000       3263.3833       1640.7100          1.0000
10787.5000          0.0000          0.1599          2.4560          1.0000       3305.8569       1677.3180          1.0000
10788.0000          0.0000          0.1688          2.4470          1.0000       3249.4670       1628.7156          1.0000
10788.5000          0.0000          0.1608          2.5120          1.0000       3246.0063       1625.7328          1.0000
10789.0000          0.0000          0.1667          2.4720          1.0000       3142.2681       1536.3208          1.0000
10789.5000          0.0000          0.1765          2.4530          1.0000       3041.9163       1449.8275          1.0000
10790.0000          0.0000          0.1982          2.4570          1.0000       3041.9163       1449.8275          1.0000
10790.5000          0.0000          0.1902          2.4460          1.0000       2942.0850       1363.7830          1.0000
10791.0000          0.0000          0.1750          2.4680          1.0000       2927.9539       1351.6034          0.0000
10791.5000          0.0000          0.1897          2.4730          1.0000       2889.0996       1318.1149          1.0000
10792.0000          0.0000          0.1951          2.4710          1.0000       2783.5615       1227.1516          1.0000
10792.5000          0.0000          0.1928          2.4450          1.0000       3017.8218       1429.0605          1.0000
10793.0000          0.0457          0.1808          2.4470          1.0000       3246.0063       1625.7328          0.7471
10793.5000          0.1334          0.1809          2.5110          1.0000       3535.9629       1875.6464          0.2625
10794.0000          0.1771          0.1904          2.4810          0.9752       3882.8025       2174.5874          0.0702
10794.5000          0.1708          0.2016          2.4510          0.9846       3735.2942       2047.4500          0.1527
10795.0000          0.1315          0.1951          2.4590          1.0000       3531.8652       1872.1145          0.3262
10795.5000          0.0940          0.1846          2.4430          1.0000       3527.7776       1868.5914          0.4908
10796.0000          0.1242          0.1861          2.4790          1.0000       3499.4263       1844.1554          0.3328
10796.5000          0.1261          0.1954          2.4630          1.0000       3535.9629       1875.6464          0.3549
10797.0000          0.1116          0.1976          2.4800          1.0000       3676.7188       1996.9637          0.4353
10797.5000          0.0929          0.2042          2.4420          1.0000       3628.5715       1955.4657          0.5451
10798.0000          0.0775          0.1947          2.4400          1.0000       3467.5769       1816.7045          0.6019
10798.5000          0.0648          0.1867          2.4670          1.0000       3165.1091       1556.0074          0.6530
