~VERSION INFORMATION
 VERS.                          2.0   : CWLS LOG ASCII STANDARD - VERSION 2.0
 WRAP.                          NO    : ONE LINE PER DEPTH STEP
#
~Well Information Section
#MNEM     .UNIT     DATA                DESCRIPTION
#-----    -----     --------            --------------
 STRT     .F        10535.0000          : START DEPTH
 STOP     .F        11400.0000          : END DEPTH
 STEP     .F        0.5000              : INCREMENT DEPTH
 NULL     .         -999.2500           : NULL VALUE
 COMP     .                             :
 WELL     .         WELL                : WELL NAME
 EKB      .F        60.0000             : KELLY BUSHING ELEVATION
 EGL      .F        0.0000              : GROUND LEVEL ELEVATION
 FLD      .                              :
 LOC      . X = 529090.0000 Y = 179645.0000: WELL LOCATION
 PROV     .                              :
 SRVC     .                              :
 PROV     .                              :
 DATE     .                              :
 UWI      .         UNIQUE WELL ID       : UNIQUE WELL ID
 API      .                              :
#
~Curve Information Section
#MNEM     .UNIT               Curve #DESCRIPTION
#-----    -----               ----   --------------
 DEPTH    .F                  : 1     Name = Domain Curve - Type = DEPTH
 PhiE     .fraction           : 2     Name = PhiE - Type = Porosity
 PhiT     .fraction           : 3     Name = PhiT - Type = Porosity
 RhoB     .g/c3               : 4     Name = RhoB - Type = Density
 Sw       .0.Sw               : 5     Name = Sw - Type = Water Saturation
 Vp       .m/s                : 6     Name = Vp - Type = P-wave
 Vs       .m/s                : 7     Name = Vs - Type = S-wave
 Vsh      .API                : 8     Name = Vsh - Type = Volumetric
~A (ASCII LOG DATA)
# ...
10931.0000          0.0147          0.1983          2.4150          1.0000       3069.4863       1473.5902          0.9261
10931.5000          0.0188          0.1956          2.4160          1.0000       3066.3982       1470.9285          0.9040
10932.0000          0.0784          0.2022          2.3920          1.0000       3191.6230       1578.8599          0.6121
10932.5000          0.0897          0.2122          2.4430          1.0000       3208.4211       1593.3381          0.5772
10933.0000          0.0395          0.2409          2.3910          1.0000       3225.3967       1607.9694          0.8360
10933.5000          0.0000          0.2529          2.3630          1.0000       3110.2041       1508.6848          1.0000
10934.0000          0.0000          0.2336          2.4130          1.0000       3002.9556       1416.2473          1.0000
10934.5000          0.1017          0.2282          2.4470          1.0000       3023.8093       1434.2212          0.5544
10935.0000          0.0696          0.1850          2.5050          1.0000       3129.3633       1525.1981          0.6240
10935.5000          0.1139          0.1670          2.4900          1.0000       3181.6284       1570.2455          0.3179
10936.0000          0.1100          0.2006          2.4690          1.0000       3239.1074       1619.7866          0.4518
10936.5000          0.1281          0.2268          2.4620          1.0000       3194.9685       1581.7433          0.4353
10937.0000          0.0000          0.2215          2.4650          1.0000       3023.8093       1434.2212          1.0000
10937.5000          0.0000          0.2262          2.4040          1.0000       2991.1677       1406.0874          1.0000
10938.0000          0.0000          0.2308          2.4450          1.0000       3017.8218       1429.0605          1.0000
10938.5000          0.0093          0.2318          2.5660          1.0000       3181.6284       1570.2455          0.9600
10939.0000          0.0171          0.2096          2.4830          1.0000       3252.9351       1631.7046          0.9184
10939.5000          0.0541          0.1953          2.4590          1.0000       3455.7825       1806.5388          0.7229
10940.0000          0.0000          0.2144          2.4670          1.0000       3483.4285       1830.3669          1.0000
10940.5000          0.0001          0.2137          2.4770          1.0000       3256.4104       1634.7001          0.9995
10941.0000          0.0147          0.2177          2.4510          1.0000       3148.7603       1541.9164          0.9325
10941.5000          0.0228          0.2163          2.4230          1.0000       3110.2041       1508.6848          0.8946
10942.0000          0.0000          0.2220          2.5090          1.0000       2939.2478       1361.3376          1.0000
10942.5000          0.0000          0.2263          2.5490          1.0000       3002.9556       1416.2473          1.0000
10943.0000          0.0000          0.2254          2.5040          1.0000       2994.1060       1408.6199          1.0000
10943.5000          0.0000          0.2296          2.4480          1.0000       2997.0503       1411.1576          1.0000
10944.0000          0.0000          0.2391          2.4900          1.0000       2970.7603       1388.4982          1.0000
10944.5000          0.0000          0.2525          2.5010          1.0000       3032.8357       1442.0010          1.0000
10945.0000          0.0000          0.2523          2.5260          1.0000       3054.1082       1460.3357          1.0000
10945.5000          0.0862          0.2568          2.4680          1.0000       3168.3994       1558.8434          0.6642
10946.0000          0.0672          0.2640          2.4410          1.0000       3171.6960       1561.6847          0.7453
10946.5000          0.0580          0.2589          2.4830          1.0000       3221.9875       1605.0310          0.7758
10947.0000          0.0834          0.2447          2.5170          1.0000       3256.4104       1634.7001          0.6592
10947.5000          0.1149          0.2402          2.5360          1.0000       3379.1577       1740.4960          0.5216
10948.0000          0.0858          0.2149          2.4680          1.0000       3353.1353       1718.0671          0.6008
10948.5000          0.0045          0.1815          2.5140          1.0000       3390.4336       1750.2146          0.9751
10949.0000          0.0802          0.1752          2.4530          1.0000       3313.0435       1683.5121          0.5422
10949.5000          0.1135          0.1665          2.4330          1.0000       3334.7920       1702.2571          0.3184
10950.0000          0.1121          0.1543          2.4520          1.0000       3302.2751       1674.2308          0.2738
10950.5000          0.0908          0.1655          2.4140          1.0000       3171.6960       1561.6847          0.4515
10951.0000          0.0420          0.1595          2.5080          1.0000       2947.7756       1368.6877          0.7366
10951.5000          0.0616          0.1641          2.4790          1.0000       2982.3875       1398.5197          0.6247
10952.0000          0.1185          0.1795          2.4190          1.0000       3081.9009       1484.2903          0.3398
10952.5000          0.1713          0.1982          2.3750          1.0000       3198.3208       1584.6326          0.1360
10953.0000          0.2039          0.2209          2.3210          0.8179       3273.8992       1649.7736          0.0769
10953.5000          0.1962          0.2100          2.3950          0.8361       3239.1074       1619.7866          0.0656
10954.0000          0.1851          0.2179          2.3660          0.8668       3280.9473       1655.8484          0.1504
10954.5000          0.1788          0.2064          2.4700          0.8888       3194.9685       1581.7433          0.1339
10955.0000          0.1644          0.2027          2.5730          0.9785       3323.8823       1692.8541          0.1890
10955.5000          0.1773          0.1928          2.5570          0.9105       3491.4089       1837.2452          0.0804
10956.0000          0.1922          0.1995          2.5540          0.8401       3569.0867       1904.1957          0.0367
10956.5000          0.1942          0.2036          2.4890          0.8418       3531.8652       1872.1145          0.0000
10957.0000          0.1962          0.2078          2.3940          0.8378       3338.4446       1705.4053          0.0000
10957.5000          0.2185          0.2338          2.2570          0.7519       3198.3208       1584.6326          0.0000
10958.0000          0.1814          0.1960          2.4550          0.9318       3168.3994       1558.8434          0.0000
10958.5000          0.1751          0.1913          2.4470          0.9816       3148.7603       1541.9164          0.0000
10959.0000          0.1704          0.1880          2.4700          1.0000       3225.3967       1607.9694          0.0940
10959.5000          0.0934          0.1801          2.4470          1.0000       3171.6960       1561.6847          0.4817
10960.0000          0.0529          0.1866          2.4210          1.0000       3191.6230       1578.8599          0.7163
10960.5000          0.0442          0.1864          2.4190          1.0000       3175.0000       1564.5325          0.7627
10961.0000          0.0379          0.1838          2.4130          1.0000       3132.5796       1527.9702          0.7936
10961.5000          0.0287          0.1997          2.4240          1.0000       3178.3105       1567.3857          0.8562
10962.0000          0.0466          0.1891          2.4370          1.0000       3228.8137       1610.9144          0.7536
10962.5000          0.1358          0.1695          2.4370          1.0000       3360.5293       1724.4401          0.1987
10963.0000          0.1637          0.1830          2.4240          1.0000       3463.6365       1813.3082          0.1052
10963.5000          0.1848          0.2160          2.3820          0.9701       3444.0679       1796.4420          0.1444
