~VERSION INFORMATION
 VERS.                          2.0   : CWLS LOG ASCII STANDARD - VERSION 2.0
 WRAP.                          NO    : ONE LINE PER DEPTH STEP
#
~Well Information Section
#MNEM     .UNIT     DATA                DESCRIPTION
#-----    -----     --------            --------------
 STRT     .F        10535.0000          : START DEPTH
 STOP     .F        11400.0000          : END DEPTH
 STEP     .F        0.5000              : INCREMENT DEPTH
 NULL     .         -999.2500           : NULL VALUE
 COMP     .                             :
 WELL     .         WELL                : WELL NAME
 EKB      .F        60.0000             : KELLY BUSHING ELEVATION
 EGL      .F        0.0000              : GROUND LEVEL ELEVATION
 FLD      .                              :
 LOC      . X = 529090.0000 Y = 179645.0000: WELL LOCATION
 PROV     .                              :
 SRVC     .                              :
 PROV     .                              :
 DATE     .                              :
 UWI      .         UNIQUE WELL ID       : UNIQUE WELL ID
 API      .                              :
#
~Curve Information Section
#MNEM     .UNIT               Curve #DESCRIPTION
#-----    -----               ----   --------------
 DEPTH    .F                  : 1     Name = Domain Curve - Type = DEPTH
 PhiE     .fraction           : 2     Name = PhiE - Type = Porosity
 PhiT     .fraction           : 3     Name = PhiT - Type = Porosity
 RhoB     .g/c3               : 4     Name = RhoB - Type = Density
 Sw       .0.Sw               : 5     Name = Sw - Type = Water Saturation
 Vp       .m/s                : 6     Name = Vp - Type = P-wave
 Vs       .m/s                : 7     Name = Vs - Type = S-wave
 Vsh      .API                : 8     Name = Vsh - Type = Volumetric
~A (ASCII LOG DATA)
# ...
11294.0000          0.0884          0.2196          2.4540          1.0000       3309.4463       1680.4116          0.5973
11294.5000          0.0459          0.1941          2.4050          1.0000       3239.1074       1619.7866          0.7634
11295.0000          0.0806          0.1722          2.4220          1.0000       3409.3960       1766.5583          0.5323
11295.5000          0.0931          0.1575          2.4650          1.0000       3367.9558       1730.8411          0.4088
11296.0000          0.1205          0.1868          2.3820          1.0000       3479.4521       1826.9397          0.3548
11296.5000          0.1198          0.2187          2.4560          1.0000       3327.5112       1695.9818          0.4523
11297.0000          0.0000          0.2178          2.4850          1.0000       3145.5107       1539.1156          1.0000
11297.5000          0.0000          0.2091          2.4940          1.0000       3081.9009       1484.2903          1.0000
11298.0000          0.0000          0.2056          2.4890          1.0000       3119.7544       1516.9163          1.0000
11298.5000          0.0532          0.1782          2.5030          1.0000       3228.8137       1610.9144          0.7018
11299.0000          0.0727          0.1540          2.5870          1.0000       3382.9080       1743.7283          0.5278
11299.5000          0.0998          0.1728          2.5170          1.0000       3467.5769       1816.7045          0.4229
11300.0000          0.1451          0.1979          2.5010          1.0000       3459.7048       1809.9196          0.2668
11300.5000          0.1460          0.2050          2.5470          1.0000       3420.8755       1776.4525          0.2881
11301.0000          0.1307          0.1869          2.4750          1.0000       3256.4104       1634.7001          0.3008
11301.5000          0.1200          0.1883          2.4760          1.0000       3201.6807       1587.5284          0.3628
11302.0000          0.1053          0.2033          2.5160          1.0000       3270.3862       1646.7458          0.4822
11302.5000          0.0741          0.2242          2.5170          1.0000       3208.4211       1593.3381          0.6693
11303.0000          0.0089          0.2188          2.5030          1.0000       3178.3105       1567.3857          0.9592
11303.5000          0.0559          0.1713          2.5300          1.0000       3316.6484       1686.6191          0.6739
11304.0000          0.0991          0.1462          2.5500          1.0000       3375.4150       1737.2701          0.3224
11304.5000          0.1398          0.1601          2.5510          1.0000       3645.9331       1970.4297          0.1264
11305.0000          0.1550          0.1886          2.5950          1.0000       3795.7659       2099.5706          0.1785
11305.5000          0.1544          0.2091          2.5520          1.0000       3645.9331       1970.4297          0.2617
11306.0000          0.1310          0.2182          2.5460          1.0000       3305.8569       1677.3180          0.3996
11306.5000          0.1206          0.1985          2.5320          1.0000       3194.9685       1581.7433          0.3926
11307.0000          0.1225          0.1781          2.5240          1.0000       3221.9875       1605.0310          0.3123
11307.5000          0.1238          0.2036          2.4920          1.0000       3246.0063       1625.7328          0.3919
11308.0000          0.1205          0.2420          2.3990          1.0000       3211.8018       1596.2518          0.5020
11308.5000          0.0000          0.2370          2.4300          1.0000       3113.3811       1511.4231          1.0000
11309.0000          0.0492          0.2162          2.4700          1.0000       3014.8369       1426.4878          0.7722
11309.5000          0.0992          0.2194          2.4970          1.0000       2997.0503       1411.1576          0.5482
11310.0000          0.0930          0.2300          2.4540          1.0000       2964.9805       1383.5166          0.5957
11310.5000          0.0000          0.2317          2.4620          1.0000       2933.5898       1356.4611          1.0000
11311.0000          0.0000          0.2405          2.3940          1.0000       2832.7136       1269.5157          1.0000
11311.5000          0.0000          0.2498          2.4520          1.0000       2822.2222       1260.4733          1.0000
11312.0000          0.0190          0.2377          2.4190          1.0000       2814.4043       1253.7350          0.9202
11312.5000          0.0351          0.2240          2.4650          1.0000       2867.3564       1299.3744          0.8434
11313.0000          0.0410          0.2138          2.4770          1.0000       2944.9275       1366.2329          0.8081
11313.5000          0.1007          0.1909          2.4990          1.0000       2959.2234       1378.5546          0.4725
11314.0000          0.1048          0.1808          2.6100          1.0000       3091.2781       1492.3724          0.4203
11314.5000          0.1158          0.2027          2.5740          1.0000       3091.2781       1492.3724          0.4286
11315.0000          0.0675          0.2279          2.5010          1.0000       3094.4163       1495.0773          0.7037
11315.5000          0.0000          0.2475          2.5360          1.0000       2956.3530       1376.0806          1.0000
11316.0000          0.0000          0.2484          2.5110          1.0000       2870.0566       1301.7018          1.0000
11316.5000          0.0000          0.2389          2.4300          1.0000       2809.2166       1249.2637          1.0000
11317.0000          0.0455          0.2292          2.4500          1.0000       2864.6616       1297.0518          0.8016
11317.5000          0.0788          0.2281          2.5230          1.0000       2950.6292       1371.1472          0.6548
11318.0000          0.0097          0.2335          2.4680          1.0000       3000.0000       1413.7000          0.9586
11318.5000          0.0135          0.2252          2.5040          1.0000       3041.9163       1449.8275          0.9401
11319.0000          0.0525          0.2236          2.4340          1.0000       3014.8369       1426.4878          0.7652
11319.5000          0.0627          0.2107          2.4420          1.0000       3005.9172       1418.7999          0.7024
11320.0000          0.0565          0.2222          2.5000          1.0000       3168.3994       1558.8434          0.7458
11320.5000          0.0420          0.2562          2.5060          1.0000       3088.1462       1489.6732          0.8360
11321.0000          0.0227          0.2573          2.4110          1.0000       3057.1716       1462.9762          0.9118
11321.5000          0.0000          0.2617          2.4030          1.0000       2979.4722       1396.0070          1.0000
11322.0000          0.0000          0.2547          2.4890          1.0000       2760.8694       1207.5933          1.0000
11322.5000          0.0000          0.2586          2.5830          1.0000       2748.4219       1196.8647          1.0000
11323.0000          0.0000          0.2824          2.5400          1.0000       2690.2031       1146.6860          1.0000
11323.5000          0.0000          0.2780          2.4020          1.0000       2694.9604       1150.7864          1.0000
11324.0000          0.0000          0.2726          2.4530          1.0000       2704.5251       1159.0302          1.0000
11324.5000          0.0000          0.2677          2.4340          1.0000       2706.9272       1161.1005          1.0000
11325.0000          0.0000          0.2769          2.3830          1.0000       2699.7341       1154.9008          1.0000
11325.5000          0.0255          0.2674          2.4330          1.0000       2702.1277       1156.9637          0.9047
11326.0000          0.0763          0.2497          2.4350          1.0000       2676.0315       1134.4714          0.6944
11326.5000          0.0472          0.2527          2.4410          1.0000       2711.7437       1165.2518          0.8131
