~VERSION INFORMATION
 VERS.                          2.0   : CWLS LOG ASCII STANDARD - VERSION 2.0
 WRAP.                          NO    : ONE LINE PER DEPTH STEP
#
~Well Information Section
#MNEM     .UNIT     DATA                DESCRIPTION
#-----    -----     --------            --------------
 STRT     .F        10535.0000          : START DEPTH
 STOP     .F        11400.0000          : END DEPTH
 STEP     .F        0.5000              : INCREMENT DEPTH
 NULL     .         -999.2500           : NULL VALUE
 COMP     .                             :
 WELL     .         WELL                : WELL NAME
 EKB      .F        60.0000             : KELLY BUSHING ELEVATION
 EGL      .F        0.0000              : GROUND LEVEL ELEVATION
 FLD      .                              :
 LOC      . X = 529090.0000 Y = 179645.0000: WELL LOCATION
 PROV     .                              :
 SRVC     .                              :
 PROV     .                              :
 DATE     .                              :
 UWI      .         UNIQUE WELL ID       : UNIQUE WELL ID
 API      .                              :
#
~Curve Information Section
#MNEM     .UNIT               Curve #DESCRIPTION
#-----    -----               ----   --------------
 DEPTH    .F                  : 1     Name = Domain Curve - Type = DEPTH
 PhiE     .fraction           : 2     Name = PhiE - Type = Porosity
 PhiT     .fraction           : 3     Name = PhiT - Type = Porosity
 RhoB     .g/c3               : 4     Name = RhoB - Type = Density
 Sw       .0.Sw               : 5     Name = Sw - Type = Water Saturation
 Vp       .m/s                : 6     Name = Vp - Type = P-wave
 Vs       .m/s                : 7     Name = Vs - Type = S-wave
 Vsh      .API                : 8     Name = Vsh - Type = Volumetric
~A (ASCII LOG DATA)
# ...
11129.0000          0.1739          0.2028          2.4550          0.8757       3548.3120       1886.2900          0.1429
11129.5000          0.1688          0.1886          2.4500          0.9215       3523.6995       1865.0764          0.1048
11130.0000          0.1510          0.1840          2.4640          1.0000       3527.7776       1868.5914          0.1792
11130.5000          0.0971          0.1668          2.4800          1.0000       3417.0405       1773.1471          0.4182
11131.0000          0.0000          0.1387          2.4560          1.0000       3218.5850       1602.0983          1.0000
11131.5000          0.0000          0.1194          2.4620          1.0000       3091.2781       1492.3724          1.0000
11132.0000          0.0000          0.1220          2.4770          1.0000       2994.1060       1408.6199          1.0000
11132.5000          0.0000          0.1260          2.4590          1.0000       2979.4722       1396.0070          1.0000
11133.0000          0.0000          0.1187          2.4820          1.0000       2979.4722       1396.0070          1.0000
11133.5000          0.0000          0.1193          2.4940          1.0000       3029.8210       1439.4027          1.0000
11134.0000          0.0000          0.1191          2.4980          1.0000       3088.1462       1489.6732          1.0000
11134.5000          0.0000          0.1204          2.4400          1.0000       2953.4883       1373.6115          1.0000
11135.0000          0.0000          0.1252          2.4500          1.0000       2919.5400       1344.3514          1.0000
11135.5000          0.0000          0.1231          2.4680          1.0000       2905.6245       1332.3577          1.0000
11136.0000          0.0000          0.1312          2.4210          1.0000       2947.7756       1368.6877          1.0000
11136.5000          0.0000          0.1375          2.3890          1.0000       2964.9805       1383.5166          1.0000
11137.0000          0.0000          0.1252          2.4290          1.0000       3060.2412       1465.6218          1.0000
11137.5000          0.0049          0.1206          2.4360          1.0000       3069.4863       1473.5902          0.9593
11138.0000          0.0678          0.1242          2.4120          1.0000       3126.1541       1522.4321          0.4541
11138.5000          0.1016          0.1211          2.4330          1.0000       3184.9531       1573.1110          0.1615
11139.0000          0.1269          0.1351          2.3880          1.0000       3356.8281       1721.2501          0.0607
11139.5000          0.1329          0.1466          2.3690          1.0000       3360.5293       1724.4401          0.0936
11140.0000          0.0885          0.1368          2.4370          1.0000       3270.3862       1646.7458          0.3535
11140.5000          0.0283          0.1306          2.4490          1.0000       3194.9685       1581.7433          0.7837
11141.0000          0.0000          0.1276          2.5500          1.0000       3119.7544       1516.9163          1.0000
11141.5000          0.0000          0.1269          2.5620          1.0000       3088.1462       1489.6732          1.0000
11142.0000          0.0000          0.1384          2.5290          1.0000       3132.5796       1527.9702          1.0000
11142.5000          0.0000          0.1496          2.5470          1.0000       3302.2751       1674.2308          1.0000
11143.0000          0.0691          0.1558          2.5520          1.0000       3507.4797       1851.0967          0.5566
11143.5000          0.1372          0.1929          2.5430          1.0000       3552.4475       1889.8544          0.2885
11144.0000          0.1662          0.2237          2.5450          1.0000       3467.5769       1816.7045          0.2572
11144.5000          0.1412          0.2354          2.5510          1.0000       3320.2615       1689.7333          0.4000
11145.0000          0.0856          0.2452          2.5670          1.0000       3020.8125       1431.6382          0.6510
11145.5000          0.0000          0.2386          2.5570          1.0000       3020.8125       1431.6382          1.0000
11146.0000          0.0000          0.2261          2.5080          1.0000       2988.2354       1403.5599          1.0000
11146.5000          0.0000          0.2391          2.5310          1.0000       2956.3530       1376.0806          1.0000
11147.0000          0.0000          0.2656          2.5540          1.0000       2953.4883       1373.6115          1.0000
11147.5000          0.0000          0.2424          2.4600          1.0000       2950.6292       1371.1472          1.0000
11148.0000          0.0062          0.2093          2.4580          1.0000       2967.8677       1386.0051          0.9703
11148.5000          0.0000          0.2091          2.4410          1.0000       3069.4863       1473.5902          1.0000
11149.0000          0.0000          0.2167          2.4090          1.0000       2997.0503       1411.1576          1.0000
11149.5000          0.0000          0.2222          2.4330          1.0000       3014.8369       1426.4878          1.0000
11150.0000          0.0000          0.2221          2.4390          1.0000       2994.1060       1408.6199          1.0000
11150.5000          0.0000          0.2175          2.4220          1.0000       3069.4863       1473.5902          1.0000
11151.0000          0.0672          0.2081          2.4090          1.0000       3041.9163       1449.8275          0.6769
11151.5000          0.1078          0.1875          2.4180          1.0000       3168.3994       1558.8434          0.4251
11152.0000          0.1354          0.1836          2.4460          1.0000       3316.6484       1686.6191          0.2625
11152.5000          0.1734          0.2191          2.4370          0.9565       3331.1475       1699.1158          0.2086
11153.0000          0.1952          0.2163          2.4200          0.8483       3394.2090       1753.4686          0.0978
11153.5000          0.1595          0.1646          2.4960          1.0000       3540.0696       1879.1859          0.0311
11154.0000          0.1485          0.1561          2.4510          1.0000       3405.5864       1763.2749          0.0487
11154.5000          0.1693          0.2076          2.4360          1.0000       3266.8809       1643.7245          0.1847
11155.0000          0.1263          0.2584          2.4930          1.0000       3116.5645       1514.1669          0.5112
11155.5000          0.0305          0.2625          2.4550          1.0000       2913.9578       1339.5402          0.8838
11156.0000          0.0000          0.2525          2.4620          1.0000       2827.4583       1264.9862          1.0000
11156.5000          0.0000          0.2292          2.4780          1.0000       2837.9888       1274.0625          1.0000
11157.0000          0.0000          0.2431          2.4700          1.0000       2988.2354       1403.5599          1.0000
11157.5000          0.0000          0.2289          2.4510          1.0000       3017.8218       1429.0605          1.0000
11158.0000          0.0000          0.2092          2.4660          1.0000       3152.0166       1544.7230          1.0000
11158.5000          0.1006          0.2071          2.4520          1.0000       3188.2844       1575.9823          0.5143
11159.0000          0.0108          0.1837          2.4680          1.0000       3302.2751       1674.2308          0.9410
11159.5000          0.0065          0.1705          2.4830          1.0000       3132.5796       1527.9702          0.9622
11160.0000          0.0000          0.1595          2.4730          1.0000       3029.8210       1439.4027          1.0000
11160.5000          0.0000          0.1530          2.4830          1.0000       2991.1677       1406.0874          1.0000
11161.0000          0.0000          0.1559          2.5100          1.0000       2970.7603       1388.4982          0.0000
11161.5000          0.0000          0.1597          2.5200          1.0000       3072.5808       1476.2573          1.0000
