~VERSION INFORMATION
 VERS.                          2.0   : CWLS LOG ASCII STANDARD - VERSION 2.0
 WRAP.                          NO    : ONE LINE PER DEPTH STEP
#
~Well Information Section
#MNEM     .UNIT     DATA                DESCRIPTION
#-----    -----     --------            --------------
 STRT     .F        10535.0000          : START DEPTH
 STOP     .F        11400.0000          : END DEPTH
 STEP     .F        0.5000              : INCREMENT DEPTH
 NULL     .         -999.2500           : NULL VALUE
 COMP     .                             :
 WELL     .         WELL                : WELL NAME
 EKB      .F        60.0000             : KELLY BUSHING ELEVATION
 EGL      .F        0.0000              : GROUND LEVEL ELEVATION
 FLD      .                              :
 LOC      . X = 529090.0000 Y = 179645.0000: WELL LOCATION
 PROV     .                              :
 SRVC     .                              :
 PROV     .                              :
 DATE     .                              :
 UWI      .         UNIQUE WELL ID       : UNIQUE WELL ID
 API      .                              :
#
~Curve Information Section
#MNEM     .UNIT               Curve #DESCRIPTION
#-----    -----               ----   --------------
 DEPTH    .F                  : 1     Name = Domain Curve - Type = DEPTH
 PhiE     .fraction           : 2     Name = PhiE - Type = Porosity
 PhiT     .fraction           : 3     Name = PhiT - Type = Porosity
 RhoB     .g/c3               : 4     Name = RhoB - Type = Density
 Sw       .0.Sw               : 5     Name = Sw - Type = Water Saturation
 Vp       .m/s                : 6     Name = Vp - Type = P-wave
 Vs       .m/s                : 7     Name = Vs - Type = S-wave
 Vsh      .API                : 8     Name = Vsh - Type = Volumetric
~A (ASCII LOG DATA)
# ...
11096.0000          0.0000          0.2028          2.4710          1.0000       3188.2844       1575.9823          1.0000
11096.5000          0.0000          0.2025          2.4670          1.0000       3242.5530       1622.7563          1.0000
11097.0000          0.0000          0.1999          2.4690          1.0000       3135.8025       1530.7480          1.0000
11097.5000          0.0000          0.1880          2.4880          1.0000       3097.5608       1497.7876          1.0000
11098.0000          0.0207          0.1926          2.4350          1.0000       3000.0000       1413.7000          0.8924
11098.5000          0.0000          0.2024          2.4730          1.0000       2944.9275       1366.2329          1.0000
11099.0000          0.0000          0.2016          2.4660          1.0000       2942.0850       1363.7830          1.0000
11099.5000          0.0000          0.1884          2.4450          1.0000       2939.2478       1361.3376          1.0000
11100.0000          0.0000          0.1913          2.4780          1.0000       2927.9539       1351.6034          1.0000
11100.5000          0.0000          0.1867          2.4680          1.0000       2933.5898       1356.4611          1.0000
11101.0000          0.0000          0.1880          2.4610          1.0000       3085.0203       1486.9789          1.0000
11101.5000          0.0000          0.1957          2.4640          1.0000       3148.7603       1541.9164          1.0000
11102.0000          0.0000          0.2033          2.4640          1.0000       3298.7012       1671.1504          1.0000
11102.5000          0.0356          0.1979          2.4740          1.0000       3235.6689       1616.8230          0.8202
11103.0000          0.0171          0.1989          2.4860          1.0000       3152.0166       1544.7230          0.9141
11103.5000          0.0000          0.1940          2.4860          1.0000       3175.0000       1564.5325          1.0000
11104.0000          0.0000          0.1918          2.4870          1.0000       3081.9009       1484.2903          1.0000
11104.5000          0.0000          0.1854          2.4820          1.0000       3041.9163       1449.8275          1.0000
11105.0000          0.0000          0.1869          2.5090          1.0000       3205.0474       1590.4302          1.0000
11105.5000          0.0310          0.1918          2.5020          1.0000       3168.3994       1558.8434          0.8383
11106.0000          0.0000          0.1845          2.4920          1.0000       3232.2373       1613.8652          1.0000
11106.5000          0.0256          0.1790          2.4650          1.0000       3256.4104       1634.7001          0.8568
11107.0000          0.0000          0.1779          2.5140          1.0000       3246.0063       1625.7328          1.0000
11107.5000          0.1086          0.1687          2.4850          1.0000       3288.0261       1661.9496          0.3563
11108.0000          0.0791          0.1626          2.4890          1.0000       3298.7012       1671.1504          0.5133
11108.5000          0.1154          0.1581          2.4770          1.0000       3367.9558       1730.8411          0.2701
11109.0000          0.0867          0.1487          2.4800          1.0000       3375.4150       1737.2701          0.4172
11109.5000          0.1298          0.1672          2.4770          1.0000       3360.5293       1724.4401          0.2237
11110.0000          0.1091          0.1774          2.5030          1.0000       3284.4824       1658.8953          0.3853
11110.5000          0.1016          0.1859          2.4640          1.0000       3152.0166       1544.7230          0.4532
11111.0000          0.1101          0.2009          2.4960          1.0000       3320.2615       1689.7333          0.4518
11111.5000          0.1185          0.2162          2.4720          1.0000       3353.1353       1718.0671          0.4518
11112.0000          0.1446          0.2213          2.4770          1.0000       3394.2090       1753.4686          0.3465
11112.5000          0.0979          0.2098          2.4840          1.0000       3467.5769       1816.7045          0.5334
11113.0000          0.0965          0.2064          2.4850          1.0000       3273.8992       1649.7736          0.5324
11113.5000          0.0433          0.2071          2.4650          1.0000       3270.3862       1646.7458          0.7911
11114.0000          0.0389          0.2206          2.4570          1.0000       3211.8018       1596.2518          0.8238
11114.5000          0.0219          0.2191          2.4970          1.0000       3081.9009       1484.2903          0.9001
11115.0000          0.0251          0.2012          2.4770          1.0000       3175.0000       1564.5325          0.8750
11115.5000          0.0429          0.1862          2.4730          1.0000       3152.0166       1544.7230          0.7696
11116.0000          0.0114          0.1751          2.4560          1.0000       3191.6230       1578.8599          0.9347
11116.5000          0.0000          0.1685          2.4660          1.0000       3242.5530       1622.7563          1.0000
11117.0000          0.0000          0.1714          2.4760          1.0000       3273.8992       1649.7736          1.0000
11117.5000          0.0000          0.1886          2.4780          1.0000       3331.1475       1699.1158          1.0000
11118.0000          0.0000          0.2002          2.4600          1.0000       3364.2385       1727.6371          1.0000
11118.5000          0.0006          0.2041          2.4830          1.0000       3386.6667       1746.9680          0.9973
11119.0000          0.1083          0.2014          2.4840          1.0000       3302.2751       1674.2308          0.4622
11119.5000          0.0452          0.2109          2.4660          1.0000       3232.2373       1613.8652          0.7856
11120.0000          0.0000          0.2058          2.4580          1.0000       3139.0317       1533.5314          1.0000
11120.5000          0.0000          0.2036          2.4430          1.0000       3014.8369       1426.4878          1.0000
11121.0000          0.0000          0.2004          2.4600          1.0000       2950.6292       1371.1472          1.0000
11121.5000          0.0000          0.2144          2.4900          1.0000       2936.4160       1358.8969          1.0000
11122.0000          0.0000          0.2149          2.4760          1.0000       2900.0952       1327.5920          1.0000
11122.5000          0.0000          0.2082          2.4680          1.0000       2880.9072       1311.0538          1.0000
11123.0000          0.0000          0.2002          2.4790          1.0000       2944.9275       1366.2329          1.0000
11123.5000          0.0000          0.2082          2.4730          1.0000       3011.8577       1423.9200          1.0000
11124.0000          0.0853          0.2081          2.4950          1.0000       3091.2781       1492.3724          0.5899
11124.5000          0.1191          0.2094          2.4580          1.0000       3232.2373       1613.8652          0.4311
11125.0000          0.1467          0.2146          2.4240          1.0000       3165.1091       1556.0074          0.3165
11125.5000          0.1260          0.2089          2.4990          1.0000       3165.1091       1556.0074          0.3969
11126.0000          0.1133          0.2107          2.4860          1.0000       3198.3208       1584.6326          0.4624
11126.5000          0.0707          0.2032          2.4800          1.0000       3225.3967       1607.9694          0.6519
11127.0000          0.0871          0.2008          2.5120          1.0000       3313.0435       1683.5121          0.5665
11127.5000          0.0785          0.2024          2.4880          1.0000       3364.2385       1727.6371          0.6121
11128.0000          0.1223          0.2006          2.4450          1.0000       3459.7048       1809.9196          0.3903
11128.5000          0.1556          0.2057          2.4600          0.9954       3471.5259       1820.1080          0.2434
