~VERSION INFORMATION
 VERS.                          2.0   : CWLS LOG ASCII STANDARD - VERSION 2.0
 WRAP.                          NO    : ONE LINE PER DEPTH STEP
#
~Well Information Section
#MNEM     .UNIT     DATA                DESCRIPTION
#-----    -----     --------            --------------
 STRT     .F        10535.0000          : START DEPTH
 STOP     .F        11400.0000          : END DEPTH
 STEP     .F        0.5000              : INCREMENT DEPTH
 NULL     .         -999.2500           : NULL VALUE
 COMP     .                             :
 WELL     .         WELL                : WELL NAME
 EKB      .F        60.0000             : KELLY BUSHING ELEVATION
 EGL      .F        0.0000              : GROUND LEVEL ELEVATION
 FLD      .                              :
 LOC      . X = 529090.0000 Y = 179645.0000: WELL LOCATION
 PROV     .                              :
 SRVC     .                              :
 PROV     .                              :
 DATE     .                              :
 UWI      .         UNIQUE WELL ID       : UNIQUE WELL ID
 API      .                              :
#
~Curve Information Section
#MNEM     .UNIT               Curve #DESCRIPTION
#-----    -----               ----   --------------
 DEPTH    .F                  : 1     Name = Domain Curve - Type = DEPTH
 PhiE     .fraction           : 2     Name = PhiE - Type = Porosity
 PhiT     .fraction           : 3     Name = PhiT - Type = Porosity
 RhoB     .g/c3               : 4     Name = RhoB - Type = Density
 Sw       .0.Sw               : 5     Name = Sw - Type = Water Saturation
 Vp       .m/s                : 6     Name = Vp - Type = P-wave
 Vs       .m/s                : 7     Name = Vs - Type = S-wave
 Vsh      .API                : 8     Name = Vsh - Type = Volumetric
~A (ASCII LOG DATA)
# ...
11261.0000          0.1068          0.2141          2.4280          1.0000       2967.8677       1386.0051          0.5011
11261.5000          0.0958          0.2097          2.4540          1.0000       2982.3875       1398.5197          0.5431
11262.0000          0.0000          0.2167          2.4350          1.0000       2979.4722       1396.0070          0.9998
11262.5000          0.0000          0.2427          2.4300          1.0000       3054.1082       1460.3357          1.0000
11263.0000          0.0000          0.2395          2.4780          1.0000       3103.8699       1503.2253          1.0000
11263.5000          0.1416          0.2002          2.4930          1.0000       3503.4482       1847.6219          0.2927
11264.0000          0.1353          0.1391          2.4950          1.0000       3984.3137       2262.0798          0.0277
11264.5000          0.1013          0.1063          2.4680          1.0000       4385.6118       2607.9587          0.0000
11265.0000          0.1055          0.1130          2.4430          1.0000       4366.7622       2591.7122          0.0000
11265.5000          0.1198          0.1311          2.4740          1.0000       4064.0000       2330.7615          0.0000
11266.0000          0.1538          0.1719          2.4460          0.8333       3902.6890       2191.7275          0.0000
11266.5000          0.1794          0.2049          2.4240          0.7136       3694.5454       2012.3286          0.1247
11267.0000          0.1206          0.1965          2.3970          1.0000       3556.5930       1893.4274          0.3865
11267.5000          0.1017          0.1777          2.4540          1.0000       3544.1860       1882.7339          0.4279
11268.0000          0.1600          0.2021          2.4650          0.9280       3413.2136       1769.8488          0.2082
11268.5000          0.1784          0.2113          2.4980          0.8538       3507.4797       1851.0967          0.1558
11269.0000          0.1553          0.2024          2.4790          1.0000       3447.9639       1799.7999          0.2328
11269.5000          0.1129          0.2129          2.4500          1.0000       3531.8652       1872.1145          0.4699
11270.0000          0.0048          0.2101          2.4770          1.0000       3409.3960       1766.5583          0.9773
11270.5000          0.0000          0.1968          2.4670          1.0000       3309.4463       1680.4116          1.0000
11271.0000          0.0479          0.1919          2.4780          1.0000       3323.8823       1692.8541          0.7502
11271.5000          0.1039          0.1995          2.4500          1.0000       3211.8018       1596.2518          0.4794
11272.0000          0.1092          0.2097          2.4930          1.0000       3232.2373       1613.8652          0.4794
11272.5000          0.1195          0.2142          2.4420          1.0000       3208.4211       1593.3381          0.4422
11273.0000          0.1113          0.1996          2.4440          1.0000       3263.3833       1640.7100          0.4422
11273.5000          0.1019          0.1726          2.4770          1.0000       3273.8992       1649.7736          0.4095
11274.0000          0.0000          0.1705          2.5010          1.0000       3246.0063       1625.7328          1.0000
11274.5000          0.0000          0.2065          2.4830          1.0000       3246.0063       1625.7328          1.0000
11275.0000          0.0000          0.2174          2.4480          1.0000       3069.4863       1473.5902          1.0000
11275.5000          0.0000          0.2039          2.4110          1.0000       3148.7603       1541.9164          1.0000
11276.0000          0.0000          0.1758          2.4260          1.0000       3263.3833       1640.7100          1.0000
11276.5000          0.0000          0.1816          2.3860          1.0000       3291.5767       1665.0099          1.0000
11277.0000          0.0000          0.1828          2.4100          1.0000       3364.2385       1727.6371          1.0000
11277.5000          0.0000          0.2147          2.3920          1.0000       3409.3960       1766.5583          1.0000
11278.0000          0.0000          0.2295          2.3530          1.0000       3171.6960       1561.6847          1.0000
11278.5000          0.0000          0.1919          2.3930          1.0000       3069.4863       1473.5902          1.0000
11279.0000          0.0146          0.1391          2.4080          1.0000       3249.4670       1628.7156          0.8953
11279.5000          0.0751          0.1194          2.4180          1.0000       3353.1353       1718.0671          0.3707
11280.0000          0.1144          0.1289          2.4230          1.0000       3853.3503       2149.2026          0.1126
11280.5000          0.1496          0.1542          2.4640          1.0000       4118.9189       2378.0962          0.0298
11281.0000          0.1663          0.1685          2.5440          1.0000       4096.7739       2359.0093          0.0132
11281.5000          0.1582          0.1669          2.4570          1.0000       4053.1917       2321.4458          0.0000
11282.0000          0.1646          0.1809          2.4280          1.0000       3795.7659       2099.5706          0.0000
11282.5000          0.1751          0.2009          2.4560          0.9970       3495.4128       1840.6963          0.1286
11283.0000          0.1454          0.2313          2.4660          1.0000       3364.2385       1727.6371          0.3715
11283.5000          0.0000          0.2342          2.4560          1.0000       3284.4824       1658.8953          1.0000
11284.0000          0.0000          0.2130          2.4710          1.0000       3218.5850       1602.0983          1.0000
11284.5000          0.0000          0.1847          2.4510          1.0000       3142.2681       1536.3208          1.0000
11285.0000          0.0779          0.1595          2.4910          1.0000       3139.0317       1533.5314          0.5114
11285.5000          0.1057          0.1654          2.4710          1.0000       3356.8281       1721.2501          0.3610
11286.0000          0.1201          0.1858          2.4710          1.0000       3331.1475       1699.1158          0.3536
11286.5000          0.1129          0.1993          2.4180          1.0000       3386.6667       1746.9680          0.4337
11287.0000          0.0984          0.2104          2.4490          1.0000       3280.9473       1655.8484          0.5324
11287.5000          0.1225          0.2242          2.4650          1.0000       3161.8254       1553.1772          0.4536
11288.0000          0.0150          0.2316          2.4480          1.0000       3041.9163       1449.8275          0.9354
11288.5000          0.0000          0.2279          2.4270          1.0000       3005.9172       1418.7999          1.0000
11289.0000          0.0000          0.2209          2.4470          1.0000       2944.9275       1366.2329          1.0000
11289.5000          0.0037          0.2276          2.4340          1.0000       2936.4160       1358.8969          0.9838
11290.0000          0.0306          0.2212          2.4490          1.0000       3032.8357       1442.0010          0.8618
11290.5000          0.0953          0.2018          2.4460          1.0000       3100.7122       1500.5037          0.5280
11291.0000          0.1551          0.2051          2.4090          1.0000       3142.2681       1536.3208          0.2439
11291.5000          0.1843          0.2055          2.4100          1.0000       3175.0000       1564.5325          0.1035
11292.0000          0.2151          0.2202          2.3640          0.8427       3342.1052       1708.5604          0.0232
11292.5000          0.2124          0.2150          2.3640          0.8390       3353.1353       1718.0671          0.0122
11293.0000          0.2025          0.2173          2.3400          0.8696       3345.7739       1711.7224          0.0680
11293.5000          0.1487          0.2158          2.4270          1.0000       3316.6484       1686.6191          0.3109
