~VERSION INFORMATION
 VERS.                          2.0   : CWLS LOG ASCII STANDARD - VERSION 2.0
 WRAP.                          NO    : ONE LINE PER DEPTH STEP
#
~Well Information Section
#MNEM     .UNIT     DATA                DESCRIPTION
#-----    -----     --------            --------------
 STRT     .F        10535.0000          : START DEPTH
 STOP     .F        11400.0000          : END DEPTH
 STEP     .F        0.5000              : INCREMENT DEPTH
 NULL     .         -999.2500           : NULL VALUE
 COMP     .                             :
 WELL     .         WELL                : WELL NAME
 EKB      .F        60.0000             : KELLY BUSHING ELEVATION
 EGL      .F        0.0000              : GROUND LEVEL ELEVATION
 FLD      .                              :
 LOC      . X = 529090.0000 Y = 179645.0000: WELL LOCATION
 PROV     .                              :
 SRVC     .                              :
 PROV     .                              :
 DATE     .                              :
 UWI      .         UNIQUE WELL ID       : UNIQUE WELL ID
 API      .                              :
#
~Curve Information Section
#MNEM     .UNIT               Curve #DESCRIPTION
#-----    -----               ----   --------------
 DEPTH    .F                  : 1     Name = Domain Curve - Type = DEPTH
 PhiE     .fraction           : 2     Name = PhiE - Type = Porosity
 PhiT     .fraction           : 3     Name = PhiT - Type = Porosity
 RhoB     .g/c3               : 4     Name = RhoB - Type = Density
 Sw       .0.Sw               : 5     Name = Sw - Type = Water Saturation
 Vp       .m/s                : 6     Name = Vp - Type = P-wave
 Vs       .m/s                : 7     Name = Vs - Type = S-wave
 Vsh      .API                : 8     Name = Vsh - Type = Volumetric
~A (ASCII LOG DATA)
# ...
11195.0000          0.0261          0.2473          2.4910          1.0000       2997.0503       1411.1576          0.8943
11195.5000          0.0682          0.2226          2.5140          1.0000       3017.8218       1429.0605          0.6935
11196.0000          0.0971          0.1849          2.4870          1.0000       3005.9172       1418.7999          0.4749
11196.5000          0.0181          0.1819          2.5190          1.0000       2936.4160       1358.8969          0.9005
11197.0000          0.0565          0.1794          2.5210          1.0000       3168.3994       1558.8434          0.6850
11197.5000          0.0661          0.1710          2.5270          1.0000       3371.6814       1734.0521          0.6132
11198.0000          0.1362          0.1689          2.5050          1.0000       3628.5715       1955.4657          0.1938
11198.5000          0.1603          0.1695          2.4810          1.0000       3753.6948       2063.3096          0.0544
11199.0000          0.1547          0.1623          2.5190          1.0000       3507.4797       1851.0967          0.0000
11199.5000          0.1584          0.1648          2.5090          1.0000       3356.8281       1721.2501          0.0000
11200.0000          0.1728          0.1784          2.4920          0.9631       3349.4507       1714.8915          0.0000
11200.5000          0.1820          0.1864          2.5050          0.9110       3288.0261       1661.9496          0.0239
11201.0000          0.1669          0.1789          2.5080          1.0000       3379.1577       1740.4960          0.0671
11201.5000          0.1491          0.1850          2.4920          1.0000       3386.6667       1746.9680          0.1937
11202.0000          0.1473          0.1766          2.5270          1.0000       3386.6667       1746.9680          0.1658
11202.5000          0.1534          0.1926          2.5020          1.0000       3379.1577       1740.4960          0.2035
11203.0000          0.1760          0.2248          2.5260          0.9893       3259.8931       1637.7018          0.2170
11203.5000          0.0928          0.2530          2.5210          1.0000       3252.9351       1631.7046          0.6332
11204.0000          0.0000          0.2481          2.4930          1.0000       3191.6230       1578.8599          1.0000
11204.5000          0.0000          0.2345          2.4790          1.0000       3085.0203       1486.9789          1.0000
11205.0000          0.0000          0.2277          2.5070          1.0000       3175.0000       1564.5325          1.0000
11205.5000          0.0523          0.2271          2.5000          1.0000       3259.8931       1637.7018          0.7698
11206.0000          0.0836          0.1961          2.5060          1.0000       3273.8992       1649.7736          0.5737
11206.5000          0.0770          0.1320          2.5100          1.0000       3641.5771       1966.6753          0.4163
11207.0000          0.0821          0.0954          2.5200          1.0000       3868.0203       2161.8464          0.1392
11207.5000          0.0936          0.0997          2.5330          1.0000       4423.8027       2640.8755          0.0608
11208.0000          0.1023          0.1032          2.4830          1.0000       4286.9199       2522.8962          0.0092
11208.5000          0.1062          0.1070          2.4940          1.0000       4239.2212       2481.7847          0.0000
11209.0000          0.1098          0.1105          2.4770          1.0000       4305.0845       2538.5522          0.0000
11209.5000          0.1189          0.1196          2.4980          1.0000       4251.0459       2491.9763          0.0000
11210.0000          0.1403          0.1409          2.5060          1.0000       4181.0698       2431.6641          0.0046
11210.5000          0.1463          0.1586          2.5050          1.0000       3994.7573       2271.0813          0.0779
11211.0000          0.1431          0.1819          2.5220          1.0000       3805.2437       2107.7395          0.2135
11211.5000          0.1024          0.2054          2.4970          1.0000       3602.8369       1933.2850          0.5012
11212.0000          0.1229          0.2082          2.4760          1.0000       3397.9934       1756.7305          0.4096
11212.5000          0.1177          0.1940          2.5050          1.0000       3382.9080       1743.7283          0.3933
11213.0000          0.1393          0.1875          2.5080          1.0000       3405.5864       1763.2749          0.2571
11213.5000          0.1444          0.1868          2.4300          1.0000       3356.8281       1721.2501          0.2272
11214.0000          0.1478          0.1807          2.4680          1.0000       3305.8569       1677.3180          0.1823
11214.5000          0.1581          0.1890          2.4190          1.0000       3327.5112       1695.9818          0.1638
11215.0000          0.1520          0.1896          2.4610          1.0000       3305.8569       1677.3180          0.1986
11215.5000          0.1426          0.1920          2.4820          1.0000       3291.5767       1665.0099          0.2571
11216.0000          0.1327          0.1896          2.4690          1.0000       3375.4150       1737.2701          0.3003
11216.5000          0.1167          0.1799          2.4620          1.0000       3288.0261       1661.9496          0.3514
11217.0000          0.1262          0.1846          2.4960          1.0000       3295.1353       1668.0770          0.3165
11217.5000          0.0954          0.2020          2.5140          1.0000       3367.9558       1730.8411          0.5276
11218.0000          0.0501          0.2036          2.5270          1.0000       3382.9080       1743.7283          0.7538
11218.5000          0.0485          0.1757          2.5040          1.0000       3353.1353       1718.0671          0.7241
11219.0000          0.1026          0.1555          2.4480          1.0000       3367.9558       1730.8411          0.3403
11219.5000          0.1529          0.1933          2.4220          1.0000       3463.6365       1813.3082          0.2090
11220.0000          0.1444          0.2158          2.4670          1.0000       3424.7192       1779.7654          0.3310
11220.5000          0.1223          0.1933          2.4900          1.0000       3390.4336       1750.2146          0.3673
11221.0000          0.1234          0.1806          2.4900          1.0000       3364.2385       1727.6371          0.3168
11221.5000          0.1270          0.1886          2.4690          1.0000       3242.5530       1622.7563          0.3265
11222.0000          0.0518          0.1774          2.5220          1.0000       3270.3862       1646.7458          0.7081
11222.5000          0.0000          0.1593          2.5220          1.0000       3215.1897       1599.1719          1.0000
11223.0000          0.0000          0.1568          2.5190          1.0000       3235.6689       1616.8230          1.0000
11223.5000          0.0044          0.1676          2.5370          1.0000       3334.7920       1702.2571          0.9736
11224.0000          0.0000          0.1706          2.5370          1.0000       3353.1353       1718.0671          1.0000
11224.5000          0.0000          0.1887          2.5080          1.0000       3295.1353       1668.0770          1.0000
11225.0000          0.0000          0.2124          2.4460          1.0000       3139.0317       1533.5314          1.0000
11225.5000          0.0000          0.2350          2.3710          1.0000       2985.3083       1401.0372          1.0000
11226.0000          0.0204          0.2389          2.4040          1.0000       2979.4722       1396.0070          0.9147
11226.5000          0.0000          0.2462          2.4470          1.0000       2939.2478       1361.3376          1.0000
11227.0000          0.0000          0.2501          2.4600          1.0000       2925.1440       1349.1815          1.0000
11227.5000          0.0000          0.2298          2.4720          1.0000       2916.7463       1341.9436          1.0000
