~VERSION INFORMATION
 VERS.                          2.0   : CWLS LOG ASCII STANDARD - VERSION 2.0
 WRAP.                          NO    : ONE LINE PER DEPTH STEP
#
~Well Information Section
#MNEM     .UNIT     DATA                DESCRIPTION
#-----    -----     --------            --------------
 STRT     .F        10535.0000          : START DEPTH
 STOP     .F        11400.0000          : END DEPTH
 STEP     .F        0.5000              : INCREMENT DEPTH
 NULL     .         -999.2500           : NULL VALUE
 COMP     .                             :
 WELL     .         WELL                : WELL NAME
 EKB      .F        60.0000             : KELLY BUSHING ELEVATION
 EGL      .F        0.0000              : GROUND LEVEL ELEVATION
 FLD      .                              :
 LOC      . X = 529090.0000 Y = 179645.0000: WELL LOCATION
 PROV     .                              :
 SRVC     .                              :
 PROV     .                              :
 DATE     .                              :
 UWI      .         UNIQUE WELL ID       : UNIQUE WELL ID
 API      .                              :
#
~Curve Information Section
#MNEM     .UNIT               Curve #DESCRIPTION
#-----    -----               ----   --------------
 DEPTH    .F                  : 1     Name = Domain Curve - Type = DEPTH
 PhiE     .fraction           : 2     Name = PhiE - Type = Porosity
 PhiT     .fraction           : 3     Name = PhiT - Type = Porosity
 RhoB     .g/c3               : 4     Name = RhoB - Type = Density
 Sw       .0.Sw               : 5     Name = Sw - Type = Water Saturation
 Vp       .m/s                : 6     Name = Vp - Type = P-wave
 Vs       .m/s                : 7     Name = Vs - Type = S-wave
 Vsh      .API                : 8     Name = Vsh - Type = Volumetric
~A (ASCII LOG DATA)
# ...
10700.0000          0.1533          0.1546          2.3540          0.9421       3338.4446       1705.4053          0.0089
10700.5000          0.1437          0.1454          2.4030          1.0000       3284.4824       1658.8953          0.0115
10701.0000          0.1492          0.1567          2.4390          1.0000       3298.7012       1671.1504          0.0482
10701.5000          0.1462          0.1770          2.4080          1.0000       3225.3967       1607.9694          0.1744
10702.0000          0.1199          0.1798          2.4490          1.0000       3295.1353       1668.0770          0.3332
10702.5000          0.0960          0.2005          2.3740          1.0000       3181.6284       1570.2455          0.5214
10703.0000          0.0842          0.1985          2.4040          1.0000       3345.7739       1711.7224          0.5760
10703.5000          0.1101          0.2042          2.3850          1.0000       3295.1353       1668.0770          0.4607
10704.0000          0.1266          0.1926          2.3700          1.0000       3342.1052       1708.5604          0.3429
10704.5000          0.1308          0.1647          2.4000          1.0000       3334.7920       1702.2571          0.2059
10705.0000          0.1464          0.1760          2.4010          1.0000       3467.5769       1816.7045          0.1679
10705.5000          0.1740          0.2271          2.3430          0.9858       3444.0679       1796.4420          0.2339
10706.0000          0.1536          0.2352          2.4000          1.0000       3280.9473       1655.8484          0.3466
10706.5000          0.0790          0.2177          2.4420          1.0000       3221.9875       1605.0310          0.6371
10707.0000          0.0000          0.2359          2.3310          1.0000       3029.8210       1439.4027          1.0000
10707.5000          0.0000          0.2440          2.3670          1.0000       2994.1060       1408.6199          1.0000
10708.0000          0.0000          0.2527          2.3900          1.0000       3152.0166       1544.7230          1.0000
10708.5000          0.0000          0.2396          2.3570          1.0000       2967.8677       1386.0051          1.0000
10709.0000          0.0000          0.2402          2.3880          1.0000       2925.1440       1349.1815          1.0000
10709.5000          0.0000          0.2629          2.3670          1.0000       2872.7617       1304.0332          1.0000
10710.0000          0.1016          0.2515          2.4250          1.0000       2666.6665       1126.3998          0.5959
10710.5000          0.0795          0.2202          2.4590          1.0000       2867.3564       1299.3744          0.6390
10711.0000          0.1074          0.1845          2.4240          1.0000       2997.0503       1411.1576          0.4181
10711.5000          0.1074          0.1470          2.4290          1.0000       3181.6284       1570.2455          0.2690
10712.0000          0.1442          0.1574          2.4890          1.0000       3602.8369       1933.2850          0.0836
10712.5000          0.1773          0.2024          2.4100          0.9464       3979.1125       2257.5969          0.1239
10713.0000          0.1759          0.2282          2.4670          0.9356       3690.0728       2008.4736          0.2291
10713.5000          0.0662          0.2162          2.3770          1.0000       3394.2090       1753.4686          0.6938
10714.0000          0.0000          0.2031          2.4540          1.0000       3313.0435       1683.5121          1.0000
10714.5000          0.0000          0.2062          2.4820          1.0000       3026.8123       1436.8094          1.0000
10715.0000          0.0000          0.2131          2.4460          1.0000       3072.5808       1476.2573          1.0000
10715.5000          0.0000          0.2238          2.4160          1.0000       3103.8699       1503.2253          1.0000
10716.0000          0.0000          0.2113          2.3950          1.0000       3038.8833       1447.2134          1.0000
10716.5000          0.0157          0.1789          2.4470          1.0000       3110.2041       1508.6848          0.9123
10717.0000          0.0684          0.1693          2.4330          1.0000       3178.3105       1567.3857          0.5959
10717.5000          0.1060          0.1810          2.4410          1.0000       3291.5767       1665.0099          0.4145
10718.0000          0.1042          0.1688          2.4570          1.0000       3323.8823       1692.8541          0.3827
10718.5000          0.1168          0.1625          2.4850          1.0000       3345.7739       1711.7224          0.2810
10719.0000          0.1404          0.1953          2.4700          1.0000       3364.2385       1727.6371          0.2810
10719.5000          0.1739          0.2272          2.4370          0.9763       3259.8931       1637.7018          0.2344
10720.0000          0.1796          0.2508          2.3910          0.9727       3142.2681       1536.3208          0.2838
10720.5000          0.1392          0.2657          2.3940          1.0000       2994.1060       1408.6199          0.4762
10721.0000          0.0000          0.2750          2.3630          1.0000       3139.0317       1533.5314          1.0000
10721.5000          0.0000          0.2897          2.2680          1.0000       2902.8572       1329.9725          1.0000
10722.0000          0.0000          0.3053          2.2650          1.0000       2837.9888       1274.0625          0.0000
10722.5000          0.0000          0.3043          2.2990          1.0000       2704.5251       1159.0302          1.0000
10723.0000          0.0000          0.2707          2.3260          1.0000       2648.1323       1110.4252          1.0000
10723.5000          0.0000          0.2030          2.4170          1.0000       2719.0010       1171.5068          1.0000
10724.0000          0.0275          0.1681          2.4490          1.0000       2872.7617       1304.0332          0.8364
10724.5000          0.0780          0.1628          2.4730          1.0000       3129.3633       1525.1981          0.5208
10725.0000          0.0989          0.1598          2.4530          1.0000       3440.1804       1793.0914          0.3810
10725.5000          0.1026          0.1637          2.4780          1.0000       3375.4150       1737.2701          0.3733
10726.0000          0.1172          0.1636          2.4420          1.0000       3428.5715       1783.0857          0.2838
10726.5000          0.1126          0.1565          2.4760          1.0000       3382.9080       1743.7283          0.2805
10727.0000          0.1122          0.1477          2.4720          1.0000       3334.7920       1702.2571          0.2398
10727.5000          0.1054          0.1518          2.4510          1.0000       3382.9080       1743.7283          0.3058
10728.0000          0.0936          0.1593          2.4330          1.0000       3259.8931       1637.7018          0.4128
10728.5000          0.0538          0.1786          2.4240          1.0000       3155.2795       1547.5354          0.6988
10729.0000          0.0000          0.2114          2.3280          1.0000       3029.8210       1439.4027          1.0000
10729.5000          0.0000          0.2246          2.3650          1.0000       2939.2478       1361.3376          1.0000
10730.0000          0.0000          0.2667          2.3480          1.0000       2883.6328       1313.4031          1.0000
10730.5000          0.0181          0.2692          2.3460          1.0000       2936.4160       1358.8969          0.9326
10731.0000          0.0000          0.2348          2.4010          1.0000       2856.6074       1290.1099          1.0000
10731.5000          0.0134          0.2400          2.3750          1.0000       2897.3386       1325.2161          0.9441
10732.0000          0.0430          0.2271          2.3690          1.0000       2908.3970       1334.7473          0.8108
10732.5000          0.0789          0.2349          2.3490          1.0000       2897.3386       1325.2161          0.6642
