~VERSION INFORMATION
 VERS.                          2.0   : CWLS LOG ASCII STANDARD - VERSION 2.0
 WRAP.                          NO    : ONE LINE PER DEPTH STEP
#
~Well Information Section
#MNEM     .UNIT     DATA                DESCRIPTION
#-----    -----     --------            --------------
 STRT     .F        10535.0000          : START DEPTH
 STOP     .F        11400.0000          : END DEPTH
 STEP     .F        0.5000              : INCREMENT DEPTH
 NULL     .         -999.2500           : NULL VALUE
 COMP     .                             :
 WELL     .         WELL                : WELL NAME
 EKB      .F        60.0000             : KELLY BUSHING ELEVATION
 EGL      .F        0.0000              : GROUND LEVEL ELEVATION
 FLD      .                              :
 LOC      . X = 529090.0000 Y = 179645.0000: WELL LOCATION
 PROV     .                              :
 SRVC     .                              :
 PROV     .                              :
 DATE     .                              :
 UWI      .         UNIQUE WELL ID       : UNIQUE WELL ID
 API      .                              :
#
~Curve Information Section
#MNEM     .UNIT               Curve #DESCRIPTION
#-----    -----               ----   --------------
 DEPTH    .F                  : 1     Name = Domain Curve - Type = DEPTH
 PhiE     .fraction           : 2     Name = PhiE - Type = Porosity
 PhiT     .fraction           : 3     Name = PhiT - Type = Porosity
 RhoB     .g/c3               : 4     Name = RhoB - Type = Density
 Sw       .0.Sw               : 5     Name = Sw - Type = Water Saturation
 Vp       .m/s                : 6     Name = Vp - Type = P-wave
 Vs       .m/s                : 7     Name = Vs - Type = S-wave
 Vsh      .API                : 8     Name = Vsh - Type = Volumetric
~A (ASCII LOG DATA)
# ...
11360.0000          0.0000          0.2622          2.4670          1.0000       2741.0073       1190.4741       -999.2500
11360.5000          0.0000          0.2559          2.4890          1.0000       2753.3877       1201.1448       -999.2500
11361.0000          0.0000          0.2614          2.4970          1.0000       2760.8694       1207.5933       -999.2500
11361.5000          0.0000          0.2642          2.4860          1.0000       2763.3726       1209.7507       -999.2500
11362.0000          0.0000          0.2466          2.4850          1.0000       2768.3926       1214.0775       -999.2500
11362.5000          0.0000          0.2526          2.4560          1.0000       2773.4304       1218.4196       -999.2500
11363.0000          0.0000          0.2545          2.4180          1.0000       2758.3711       1205.4399       -999.2500
11363.5000          0.0000          0.2512          2.3890          1.0000       2770.9089       1216.2463       -999.2500
11364.0000          0.0000          0.2572          2.4280          1.0000       2770.9089       1216.2463       -999.2500
11364.5000          0.0000          0.2871          2.3970          1.0000       2770.9089       1216.2463       -999.2500
11365.0000          0.0000          0.2837          2.3870          1.0000       2773.4304       1218.4196       -999.2500
11365.5000          0.0000          0.2619          2.3690          1.0000       2773.4304       1218.4196       -999.2500
11366.0000          0.0000          0.2673          2.4160          1.0000       2773.4304       1218.4196       -999.2500
11366.5000          0.0000          0.2739          2.4530          1.0000       2765.8804       1211.9122       -999.2500
11367.0000          0.0000          0.2574          2.4280          1.0000       2768.3926       1214.0775       -999.2500
11367.5000          0.0000          0.2433          2.5150          1.0000       2770.9089       1216.2463       -999.2500
11368.0000          0.0000          0.2695          2.4850          1.0000       2768.3926       1214.0775       -999.2500
11368.5000          0.0000          0.2668          2.4180          1.0000       2775.9561       1220.5964       -999.2500
11369.0000          0.0000          0.2625          2.4190          1.0000       2773.4304       1218.4196       -999.2500
11369.5000          0.0000          0.2474          2.4400          1.0000       2768.3926       1214.0775       -999.2500
11370.0000          0.0000          0.2517          2.4230          1.0000       2773.4304       1218.4196       -999.2500
11370.5000          0.0000          0.2621          2.4090          1.0000       2773.4304       1218.4196       -999.2500
11371.0000          0.0000          0.2751          2.3460          1.0000       2768.3926       1214.0775       -999.2500
11371.5000          0.0000          0.2767          2.4200          1.0000       2768.3926       1214.0775       -999.2500
11372.0000          0.0000          0.2725          2.3410          1.0000       2768.3926       1214.0775       -999.2500
11372.5000          0.0000          0.2775          2.3620          1.0000       2773.4304       1218.4196       -999.2500
11373.0000          0.0000          0.3135          2.3900          1.0000       2770.9089       1216.2463       -999.2500
11373.5000          0.0000          0.3004          2.3580          1.0000       2770.9089       1216.2463       -999.2500
11374.0000          0.0000          0.2817          2.3690          1.0000       2770.9089       1216.2463       -999.2500
11374.5000          0.0000          0.2888          2.3960          1.0000       2770.9089       1216.2463       -999.2500
11375.0000          0.0000          0.2891          2.3690          1.0000       2773.4304       1218.4196       -999.2500
11375.5000          0.0000          0.2843          2.3640          1.0000       2775.9561       1220.5964       -999.2500
11376.0000          0.0000          0.2772          2.3940          1.0000       2770.9089       1216.2463       -999.2500
11376.5000          0.0000          0.2857          2.3920          1.0000       2775.9561       1220.5964       -999.2500
11377.0000          0.0000          0.2984          2.3990          1.0000       2765.8804       1211.9122       -999.2500
11377.5000          0.0000          0.3010          2.4140          1.0000       2770.9089       1216.2463       -999.2500
11378.0000          0.0000          0.2714          2.3910          1.0000       2768.3926       1214.0775       -999.2500
11378.5000          0.0000          0.2749          2.4170          1.0000       2768.3926       1214.0775       -999.2500
11379.0000          0.0000          0.2911          2.3970          1.0000       2768.3926       1214.0775       -999.2500
11379.5000          0.0000          0.2857          2.4210          1.0000       2765.8804       1211.9122       -999.2500
11380.0000          0.0000          0.2574          2.3940          1.0000       2770.9089       1216.2463       -999.2500
11380.5000          0.0000          0.2791          2.3930          1.0000       2773.4304       1218.4196       -999.2500
11381.0000          0.0000          0.3396          2.3780          1.0000       2760.8694       1207.5933       -999.2500
11381.5000          0.0000          0.3820          2.3840          1.0000       2765.8804       1211.9122       -999.2500
11382.0000          0.0000          0.3827          2.3930          1.0000       2765.8804       1211.9122       -999.2500
11382.5000          0.0000          0.3841          2.4390          1.0000       2770.9089       1216.2463       -999.2500
11383.0000          0.0000          0.3845          2.4730          1.0000       2770.9089       1216.2463       -999.2500
11383.5000          0.0000          0.3830          2.4580          1.0000       2768.3926       1214.0775       -999.2500
11384.0000          0.0000          0.3820          2.5010          1.0000       2765.8804       1211.9122       -999.2500
11384.5000          0.0000          0.3838          2.4130          1.0000       2773.4304       1218.4196       -999.2500
11385.0000          0.0000          0.3820          2.3150          1.0000       2770.9089       1216.2463       -999.2500
11385.5000          0.0000          0.3806          2.3570          1.0000       2765.8804       1211.9122       -999.2500
11386.0000          0.0000          0.3799          2.3080          1.0000       2768.3926       1214.0775       -999.2500
11386.5000          0.0000          0.3827          2.3470          1.0000       2765.8804       1211.9122       -999.2500
11387.0000          0.0000          0.3767          2.3910          1.0000       2765.8804       1211.9122       -999.2500
11387.5000          0.0000          0.3792          2.3820          1.0000       2765.8804       1211.9122       -999.2500
11388.0000          0.0000          0.3809          2.4130          1.0000       2765.8804       1211.9122       -999.2500
11388.5000          0.0000          0.3802          2.3480          1.0000       2765.8804       1211.9122       -999.2500
11389.0000          0.0000          0.3781          2.3600          1.0000       2765.8804       1211.9122       -999.2500
11389.5000          0.0000          0.3774          2.3140          1.0000       2765.8804       1211.9122       -999.2500
11390.0000          0.0000          0.3795          2.4030          1.0000       2765.8804       1211.9122       -999.2500
11390.5000          0.0000          0.3770          2.4140          1.0000       2765.8804       1211.9122       -999.2500
11391.0000          0.0000          0.3792          2.4260          1.0000       2765.8804       1211.9122       -999.2500
11391.5000          0.0000          0.3809          2.3990          1.0000       2765.8804       1211.9122       -999.2500
11392.0000          0.0000          0.3792          2.3970          1.0000       2765.8804       1211.9122       -999.2500
11392.5000          0.0000          0.3799          2.3950          1.0000       2765.8804       1211.9122       -999.2500
