~VERSION INFORMATION
 VERS.                          2.0   : CWLS LOG ASCII STANDARD - VERSION 2.0
 WRAP.                          NO    : ONE LINE PER DEPTH STEP
#
~Well Information Section
#MNEM     .UNIT     DATA                DESCRIPTION
#-----    -----     --------            --------------
 STRT     .F        10535.0000          : START DEPTH
 STOP     .F        11400.0000          : END DEPTH
 STEP     .F        0.5000              : INCREMENT DEPTH
 NULL     .         -999.2500           : NULL VALUE
 COMP     .                             :
 WELL     .         WELL                : WELL NAME
 EKB      .F        60.0000             : KELLY BUSHING ELEVATION
 EGL      .F        0.0000              : GROUND LEVEL ELEVATION
 FLD      .                              :
 LOC      . X = 529090.0000 Y = 179645.0000: WELL LOCATION
 PROV     .                              :
 SRVC     .                              :
 PROV     .                              :
 DATE     .                              :
 UWI      .         UNIQUE WELL ID       : UNIQUE WELL ID
 API      .                              :
#
~Curve Information Section
#MNEM     .UNIT               Curve #DESCRIPTION
#-----    -----               ----   --------------
 DEPTH    .F                  : 1     Name = Domain Curve - Type = DEPTH
 PhiE     .fraction           : 2     Name = PhiE - Type = Porosity
 PhiT     .fraction           : 3     Name = PhiT - Type = Porosity
 RhoB     .g/c3               : 4     Name = RhoB - Type = Density
 Sw       .0.Sw               : 5     Name = Sw - Type = Water Saturation
 Vp       .m/s                : 6     Name = Vp - Type = P-wave
 Vs       .m/s                : 7     Name = Vs - Type = S-wave
 Vsh      .API                : 8     Name = Vsh - Type = Volumetric
~A (ASCII LOG DATA)
# ...
10799.0000          0.0165          0.1885          2.4430          1.0000       3148.7603       1541.9164          0.9122
10799.5000          0.0000          0.1843          2.4420          1.0000       3194.9685       1581.7433          1.0000
10800.0000          0.0000          0.1899          2.4710          1.0000       3184.9531       1573.1110          1.0000
10800.5000          0.0057          0.2178          2.4770          1.0000       3313.0435       1683.5121          0.9740
10801.0000          0.0751          0.2325          2.4480          1.0000       3507.4797       1851.0967          0.6771
10801.5000          0.0625          0.2124          2.4820          1.0000       3455.7825       1806.5388          0.7056
10802.0000          0.0000          0.2116          2.4400          1.0000       3379.1577       1740.4960          1.0000
10802.5000          0.0000          0.2122          2.4600          1.0000       3288.0261       1661.9496          1.0000
10803.0000          0.0000          0.2120          2.4410          1.0000       3097.5608       1497.7876          1.0000
10803.5000          0.0000          0.2065          2.4680          1.0000       3191.6230       1578.8599          1.0000
10804.0000          0.0000          0.2028          2.4380          1.0000       3184.9531       1573.1110          1.0000
10804.5000          0.0000          0.2115          2.4240          1.0000       3094.4163       1495.0773          1.0000
10805.0000          0.0000          0.2318          2.4310          1.0000       3002.9556       1416.2473          1.0000
10805.5000          0.0000          0.2277          2.4290          1.0000       2925.1440       1349.1815          1.0000
10806.0000          0.0000          0.2126          2.4210          1.0000       2861.9719       1294.7335          1.0000
10806.5000          0.0000          0.2025          2.4680          1.0000       2827.4583       1264.9862          1.0000
10807.0000          0.0000          0.2090          2.4420          1.0000       2878.1870       1308.7094          1.0000
10807.5000          0.0180          0.2094          2.4580          1.0000       2837.9888       1274.0625          0.9143
10808.0000          0.0346          0.2116          2.4240          1.0000       2883.6328       1313.4031          0.8364
10808.5000          0.0094          0.2223          2.4110          1.0000       2925.1440       1349.1815          0.9579
10809.0000          0.0000          0.2310          2.4410          1.0000       2905.6245       1332.3577          1.0000
10809.5000          0.0000          0.2253          2.4620          1.0000       2925.1440       1349.1815          1.0000
10810.0000          0.0000          0.2193          2.4690          1.0000       2902.8572       1329.9725          1.0000
10810.5000          0.0000          0.2251          2.4710          1.0000       2973.6584       1390.9961          1.0000
10811.0000          0.0000          0.2266          2.5000          1.0000       2911.1748       1337.1415          1.0000
10811.5000          0.0371          0.2287          2.4880          1.0000       2897.3386       1325.2161          0.8379
10812.0000          0.0106          0.2270          2.4580          1.0000       2897.3386       1325.2161          0.9535
10812.5000          0.0000          0.2228          2.4860          1.0000       2889.0996       1318.1149          1.0000
10813.0000          0.0000          0.2235          2.4800          1.0000       2911.1748       1337.1415          1.0000
10813.5000          0.0000          0.2224          2.4390          1.0000       2902.8572       1329.9725          1.0000
10814.0000          0.0000          0.2111          2.4410          1.0000       2891.8406       1320.4773          1.0000
10814.5000          0.0000          0.1960          2.4540          1.0000       2994.1060       1408.6199          1.0000
10815.0000          0.0000          0.1917          2.4760          1.0000       3054.1082       1460.3357          1.0000
10815.5000          0.0000          0.2284          2.4470          1.0000       3081.9009       1484.2903          1.0000
10816.0000          0.0000          0.2507          2.4530          1.0000       3116.5645       1514.1669          1.0000
10816.5000          0.0000          0.2105          2.4390          1.0000       3288.0261       1661.9496          1.0000
10817.0000          0.0458          0.1565          2.5460          1.0000       3405.5864       1763.2749          0.7073
10817.5000          0.1027          0.1524          2.5500          1.0000       3703.5234       2020.0668          0.3261
10818.0000          0.1585          0.2041          2.4120          1.0000       3853.3503       2149.2026          0.2237
10818.5000          0.1826          0.2337          2.4400          1.0000       3735.2942       2047.4500          0.2184
10819.0000          0.1586          0.2149          2.4710          1.0000       3507.4797       1851.0967          0.2620
10819.5000          0.1050          0.2295          2.4260          1.0000       3309.4463       1680.4116          0.5425
10820.0000          0.0000          0.2286          2.4460          1.0000       3066.3982       1470.9285          1.0000
10820.5000          0.0000          0.2221          2.4590          1.0000       2933.5898       1356.4611          1.0000
10821.0000          0.0000          0.2242          2.4820          1.0000       2947.7756       1368.6877          1.0000
10821.5000          0.0000          0.2335          2.4600          1.0000       3017.8218       1429.0605          1.0000
10822.0000          0.0000          0.2337          2.4640          1.0000       3017.8218       1429.0605          1.0000
10822.5000          0.0000          0.2289          2.4040          1.0000       2970.7603       1388.4982          1.0000
10823.0000          0.0000          0.2190          2.4620          1.0000       2916.7463       1341.9436          1.0000
10823.5000          0.0000          0.2111          2.4900          1.0000       2872.7617       1304.0332          1.0000
10824.0000          0.0000          0.2011          2.5240          1.0000       2913.9578       1339.5402          1.0000
10824.5000          0.0581          0.2046          2.5530          1.0000       2973.6584       1390.9961          0.7160
10825.0000          0.0584          0.2158          2.5730          1.0000       2979.4722       1396.0070          0.7296
10825.5000          0.0994          0.2148          2.5270          1.0000       3014.8369       1426.4878          0.5373
10826.0000          0.0276          0.2178          2.5510          1.0000       3051.0510       1457.7008          0.8732
10826.5000          0.0000          0.2247          2.5290          1.0000       2905.6245       1332.3577          1.0000
10827.0000          0.0000          0.1968          2.5030          1.0000       3081.9009       1484.2903          1.0000
10827.5000          0.0810          0.1518          2.5260          1.0000       3277.4194       1652.8077          0.4667
10828.0000          0.0971          0.1395          2.5340          1.0000       3535.9629       1875.6464          0.3036
10828.5000          0.1336          0.1649          2.4790          1.0000       3535.9629       1875.6464          0.1898
10829.0000          0.1319          0.1996          2.4370          1.0000       3573.2708       1907.8020          0.3391
10829.5000          0.0968          0.2132          2.4330          1.0000       3375.4150       1737.2701          0.5460
10830.0000          0.0000          0.2141          2.4380          1.0000       3069.4863       1473.5902          1.0000
10830.5000          0.0000          0.2201          2.4620          1.0000       2988.2354       1403.5599          1.0000
10831.0000          0.0000          0.2175          2.4580          1.0000       2911.1748       1337.1415          1.0000
10831.5000          0.0000          0.2168          2.4580          1.0000       2933.5898       1356.4611          1.0000
