~VERSION INFORMATION
 VERS.                          2.0   : CWLS LOG ASCII STANDARD - VERSION 2.0
 WRAP.                          NO    : ONE LINE PER DEPTH STEP
#
~Well Information Section
#MNEM     .UNIT     DATA                DESCRIPTION
#-----    -----     --------            --------------
 STRT     .F        10535.0000          : START DEPTH
 STOP     .F        11400.0000          : END DEPTH
 STEP     .F        0.5000              : INCREMENT DEPTH
 NULL     .         -999.2500           : NULL VALUE
 COMP     .                             :
 WELL     .         WELL                : WELL NAME
 EKB      .F        60.0000             : KELLY BUSHING ELEVATION
 EGL      .F        0.0000              : GROUND LEVEL ELEVATION
 FLD      .                              :
 LOC      . X = 529090.0000 Y = 179645.0000: WELL LOCATION
 PROV     .                              :
 SRVC     .                              :
 PROV     .                              :
 DATE     .                              :
 UWI      .         UNIQUE WELL ID       : UNIQUE WELL ID
 API      .                              :
#
~Curve Information Section
#MNEM     .UNIT               Curve #DESCRIPTION
#-----    -----               ----   --------------
 DEPTH    .F                  : 1     Name = Domain Curve - Type = DEPTH
 PhiE     .fraction           : 2     Name = PhiE - Type = Porosity
 PhiT     .fraction           : 3     Name = PhiT - Type = Porosity
 RhoB     .g/c3               : 4     Name = RhoB - Type = Density
 Sw       .0.Sw               : 5     Name = Sw - Type = Water Saturation
 Vp       .m/s                : 6     Name = Vp - Type = P-wave
 Vs       .m/s                : 7     Name = Vs - Type = S-wave
 Vsh      .API                : 8     Name = Vsh - Type = Volumetric
~A (ASCII LOG DATA)
# ...
11030.0000          0.0000          0.1861          2.5020          1.0000       3091.2781       1492.3724          1.0000
11030.5000          0.0167          0.1953          2.4950          1.0000       3017.8218       1429.0605          0.9143
11031.0000          0.0590          0.2095          2.4780          1.0000       3014.8369       1426.4878          0.7183
11031.5000          0.0000          0.2070          2.5130          1.0000       3041.9163       1449.8275          1.0000
11032.0000          0.0000          0.2107          2.4690          1.0000       3041.9163       1449.8275          1.0000
11032.5000          0.0000          0.2150          2.4660          1.0000       3139.0317       1533.5314          1.0000
11033.0000          0.0000          0.1997          2.4610          1.0000       3194.9685       1581.7433          1.0000
11033.5000          0.0224          0.1794          2.4550          1.0000       3295.1353       1668.0770          0.8752
11034.0000          0.0655          0.1807          2.4420          1.0000       3284.4824       1658.8953          0.6375
11034.5000          0.0941          0.1839          2.4420          1.0000       3259.8931       1637.7018          0.4883
11035.0000          0.0153          0.1666          2.4620          1.0000       3249.4670       1628.7156          0.9082
11035.5000          0.0008          0.1627          2.4390          1.0000       3342.1052       1708.5604          0.9949
11036.0000          0.0000          0.1643          2.4860          1.0000       3375.4150       1737.2701          1.0000
11036.5000          0.0427          0.1630          2.5080          1.0000       3409.3960       1766.5583          0.7379
11037.0000          0.0458          0.1641          2.4570          1.0000       3364.2385       1727.6371          0.7212
11037.5000          0.0490          0.1597          2.4770          1.0000       3298.7012       1671.1504          0.6935
11038.0000          0.0458          0.1643          2.4990          1.0000       3215.1897       1599.1719          0.7214
11038.5000          0.0293          0.1586          2.4920          1.0000       3188.2844       1575.9823          0.8151
11039.0000          0.0481          0.1547          2.5540          1.0000       3225.3967       1607.9694          0.6892
11039.5000          0.0614          0.1686          2.5140          1.0000       3288.0261       1661.9496          0.6361
11040.0000          0.0745          0.1925          2.5180          1.0000       3397.9934       1756.7305          0.6132
11040.5000          0.0684          0.2133          2.4620          1.0000       3444.0679       1796.4420          0.6792
11041.0000          0.0528          0.2277          2.4900          1.0000       3382.9080       1743.7283          0.7681
11041.5000          0.0049          0.2194          2.5130          1.0000       3334.7920       1702.2571          0.9775
11042.0000          0.0000          0.1907          2.5050          1.0000       3218.5850       1602.0983          1.0000
11042.5000          0.0009          0.1810          2.5020          1.0000       3171.6960       1561.6847          0.9952
11043.0000          0.0176          0.1912          2.4520          1.0000       3242.5530       1622.7563          0.9082
11043.5000          0.0769          0.1870          2.5330          1.0000       3284.4824       1658.8953          0.5887
11044.0000          0.0726          0.1881          2.4820          1.0000       3266.8809       1643.7245          0.6143
11044.5000          0.0870          0.1908          2.5210          1.0000       3291.5767       1665.0099          0.5441
11045.0000          0.0000          0.2067          2.5310          1.0000       3168.3994       1558.8434          1.0000
11045.5000          0.0000          0.1934          2.4530          1.0000       3158.5491       1550.3534          1.0000
11046.0000          0.0000          0.1620          2.4830          1.0000       3331.1475       1699.1158          1.0000
11046.5000          0.0663          0.1500          2.4820          1.0000       3367.9558       1730.8411          0.5580
11047.0000          0.0931          0.1702          2.4650          1.0000       3515.5710       1858.0706          0.4531
11047.5000          0.1059          0.1924          2.4580          1.0000       3436.3022       1789.7488          0.4494
11048.0000          0.1152          0.1996          2.4740          1.0000       3349.4507       1714.8915          0.4230
11048.5000          0.0811          0.1945          2.4920          1.0000       3280.9473       1655.8484          0.5830
11049.0000          0.0573          0.1861          2.4570          1.0000       3139.0317       1533.5314          0.6921
11049.5000          0.0420          0.1696          2.4620          1.0000       3246.0063       1625.7328          0.7521
11050.0000          0.0535          0.1669          2.4530          1.0000       3291.5767       1665.0099          0.6793
11050.5000          0.0936          0.1694          2.4460          1.0000       3327.5112       1695.9818          0.4473
11051.0000          0.1239          0.1867          2.4500          1.0000       3413.2136       1769.8488          0.3364
11051.5000          0.1455          0.2047          2.4240          1.0000       3386.6667       1746.9680          0.2893
11052.0000          0.0481          0.2084          2.4520          1.0000       3280.9473       1655.8484          0.7694
11052.5000          0.0000          0.2105          2.4280          1.0000       3201.6807       1587.5284          1.0000
11053.0000          0.0000          0.2163          2.4670          1.0000       3152.0166       1544.7230          1.0000
11053.5000          0.0000          0.2381          2.4400          1.0000       3048.0000       1455.0712          1.0000
11054.0000          0.0000          0.2433          2.4510          1.0000       3011.8577       1423.9200          1.0000
11054.5000          0.0856          0.2236          2.4450          1.0000       3002.9556       1416.2473          0.6170
11055.0000          0.0355          0.2193          2.4210          1.0000       2950.6292       1371.1472          0.8380
11055.5000          0.0051          0.2248          2.4480          1.0000       3075.6812       1478.9294          0.9771
11056.0000          0.0000          0.2240          2.4350          1.0000       2964.9805       1383.5166          1.0000
11056.5000          0.0000          0.2203          2.4370          1.0000       3051.0510       1457.7008          1.0000
11057.0000          0.0000          0.2149          2.4430          1.0000       3060.2412       1465.6218          1.0000
11057.5000          0.0000          0.2139          2.4540          1.0000       3023.8093       1434.2212          1.0000
11058.0000          0.0000          0.2066          2.4560          1.0000       3014.8369       1426.4878          1.0000
11058.5000          0.0607          0.2079          2.4410          1.0000       2994.1060       1408.6199          0.7080
11059.0000          0.0247          0.2268          2.4360          1.0000       2967.8677       1386.0051          0.8910
11059.5000          0.0428          0.2593          2.4040          1.0000       2982.3875       1398.5197          0.8350
11060.0000          0.0000          0.2645          2.4350          1.0000       2979.4722       1396.0070          1.0000
11060.5000          0.0000          0.2739          2.4160          1.0000       2889.0996       1318.1149          1.0000
11061.0000          0.0000          0.2484          2.4530          1.0000       2851.2627       1285.5033          1.0000
11061.5000          0.0000          0.1956          2.4810          1.0000       2936.4160       1358.8969          1.0000
11062.0000          0.0000          0.1450          2.4480          1.0000       3081.9009       1484.2903          1.0000
11062.5000          0.0565          0.1324          2.5520          1.0000       3455.7825       1806.5388          0.5735
