~VERSION INFORMATION
 VERS.                          2.0   : CWLS LOG ASCII STANDARD - VERSION 2.0
 WRAP.                          NO    : ONE LINE PER DEPTH STEP
#
~Well Information Section
#MNEM     .UNIT     DATA                DESCRIPTION
#-----    -----     --------            --------------
 STRT     .F        10535.0000          : START DEPTH
 STOP     .F        11400.0000          : END DEPTH
 STEP     .F        0.5000              : INCREMENT DEPTH
 NULL     .         -999.2500           : NULL VALUE
 COMP     .                             :
 WELL     .         WELL                : WELL NAME
 EKB      .F        60.0000             : KELLY BUSHING ELEVATION
 EGL      .F        0.0000              : GROUND LEVEL ELEVATION
 FLD      .                              :
 LOC      . X = 529090.0000 Y = 179645.0000: WELL LOCATION
 PROV     .                              :
 SRVC     .                              :
 PROV     .                              :
 DATE     .                              :
 UWI      .         UNIQUE WELL ID       : UNIQUE WELL ID
 API      .                              :
#
~Curve Information Section
#MNEM     .UNIT               Curve #DESCRIPTION
#-----    -----               ----   --------------
 DEPTH    .F                  : 1     Name = Domain Curve - Type = DEPTH
 PhiE     .fraction           : 2     Name = PhiE - Type = Porosity
 PhiT     .fraction           : 3     Name = PhiT - Type = Porosity
 RhoB     .g/c3               : 4     Name = RhoB - Type = Density
 Sw       .0.Sw               : 5     Name = Sw - Type = Water Saturation
 Vp       .m/s                : 6     Name = Vp - Type = P-wave
 Vs       .m/s                : 7     Name = Vs - Type = S-wave
 Vsh      .API                : 8     Name = Vsh - Type = Volumetric
~A (ASCII LOG DATA)
# ...
10601.0000          0.0000          0.2117          2.4490          1.0000       3107.0337       1505.9523          1.0000
10601.5000          0.0000          0.2227          2.4700          1.0000       3023.8093       1434.2212          1.0000
10602.0000          0.0000          0.2279          2.4790          1.0000       2933.5898       1356.4611          0.0000
10602.5000          0.0000          0.2245          2.4650          1.0000       2922.3394       1346.7642          1.0000
10603.0000          0.0000          0.2190          2.4540          1.0000       2994.1060       1408.6199          1.0000
10603.5000          0.0000          0.2242          2.4790          1.0000       3063.3167       1468.2726          1.0000
10604.0000          0.0000          0.2319          2.4850          1.0000       3048.0000       1455.0712          1.0000
10604.5000          0.0093          0.2187          2.4740          1.0000       3103.8699       1503.2253          0.9573
10605.0000          0.0000          0.2312          2.4830          1.0000       3148.7603       1541.9164          1.0000
10605.5000          0.0000          0.2310          2.4460          1.0000       3256.4104       1634.7001          1.0000
10606.0000          0.0000          0.2392          2.4240          1.0000       3305.8569       1677.3180          1.0000
10606.5000          0.0000          0.2941          2.3270          1.0000       3221.9875       1605.0310          1.0000
10607.0000          0.0000          0.2861          2.3610          1.0000       3211.8018       1596.2518          1.0000
10607.5000          0.0000          0.2706          2.3960          1.0000       3181.6284       1570.2455          1.0000
10608.0000          0.0000          0.2672          2.3780          1.0000       3094.4163       1495.0773          1.0000
10608.5000          0.0000          0.2690          2.4040          1.0000       3029.8210       1439.4027          1.0000
10609.0000          0.0000          0.2786          2.4940          1.0000       2950.6292       1371.1472          1.0000
10609.5000          0.0000          0.2889          2.3660          1.0000       2967.8677       1386.0051          1.0000
10610.0000          0.0000          0.2874          2.3760          1.0000       2976.5625       1393.4991          1.0000
10610.5000          0.0000          0.2883          2.3940          1.0000       2988.2354       1403.5599          1.0000
10611.0000          0.0000          0.2944          2.4040          1.0000       2967.8677       1386.0051          1.0000
10611.5000          0.0000          0.2875          2.4040          1.0000       2930.7693       1354.0299          1.0000
10612.0000          0.0000          0.2811          2.4040          1.0000       2856.6074       1290.1099          1.0000
10612.5000          0.0000          0.2924          2.6170          1.0000       2817.0056       1255.9771          1.0000
10613.0000          0.0000          0.2889          2.3730          1.0000       3051.0510       1457.7008          1.0000
10613.5000          0.0000          0.2272          2.3830          1.0000       3288.0261       1661.9496          1.0000
10614.0000          0.0193          0.2181          2.4610          1.0000       3535.9629       1875.6464          0.9114
10614.5000          0.0341          0.2363          2.4260          1.0000       3455.7825       1806.5388          0.8556
10615.0000          0.0302          0.2415          2.3980          1.0000       3334.7920       1702.2571          0.8751
10615.5000          0.0000          0.2389          2.3810          1.0000       2976.5625       1393.4991          1.0000
10616.0000          0.0000          0.2363          2.3800          1.0000       2889.0996       1318.1149          1.0000
10616.5000          0.0000          0.2375          2.4110          1.0000       2840.6335       1276.3419          1.0000
10617.0000          0.0000          0.2350          2.4280          1.0000       2827.4583       1264.9862          1.0000
10617.5000          0.0000          0.2424          2.3890          1.0000       2843.2837       1278.6261          1.0000
10618.0000          0.0000          0.2422          2.4000          1.0000       2897.3386       1325.2161          1.0000
10618.5000          0.0000          0.2389          2.4310          1.0000       2944.9275       1366.2329          1.0000
10619.0000          0.0000          0.2432          2.4290          1.0000       2925.1440       1349.1815          1.0000
10619.5000          0.0000          0.2384          2.4250          1.0000       2962.0991       1381.0332          1.0000
10620.0000          0.0000          0.2297          2.4520          1.0000       2982.3875       1398.5197          1.0000
10620.5000          0.0000          0.2225          2.3920          1.0000       2953.4883       1373.6115          1.0000
10621.0000          0.0000          0.2252          2.3900          1.0000       2930.7693       1354.0299          1.0000
10621.5000          0.0000          0.2362          2.4050          1.0000       2976.5625       1393.4991          1.0000
10622.0000          0.0000          0.2026          2.3890          1.0000       3198.3208       1584.6326          1.0000
10622.5000          0.0377          0.1627          2.4260          1.0000       3390.4336       1750.2146          0.7682
10623.0000          0.0692          0.1631          2.4290          1.0000       3739.8772       2051.4001          0.5760
10623.5000          0.0000          0.1612          2.4250          1.0000       3805.2437       2107.7395          1.0000
10624.0000          0.0000          0.1465          2.4350          1.0000       3602.8369       1933.2850          1.0000
10624.5000          0.0000          0.1534          2.4080          1.0000       3535.9629       1875.6464          1.0000
10625.0000          0.0653          0.1544          2.4010          1.0000       3444.0679       1796.4420          0.5773
10625.5000          0.1092          0.1823          2.4210          1.0000       3471.5259       1820.1080          0.4006
10626.0000          0.1134          0.2316          2.4100          1.0000       3345.7739       1711.7224          0.5105
10626.5000          0.0348          0.2498          2.4120          1.0000       3110.2041       1508.6848          0.8607
10627.0000          0.0000          0.2604          2.4100          1.0000       2956.3530       1376.0806          1.0000
10627.5000          0.0000          0.2768          2.3910          1.0000       2944.9275       1366.2329          1.0000
10628.0000          0.0000          0.2677          2.3950          1.0000       3026.8123       1436.8094          1.0000
10628.5000          0.0280          0.1924          2.3920          1.0000       3259.8931       1637.7018          0.8546
10629.0000          0.0670          0.1536          2.4460          1.0000       3444.0679       1796.4420          0.5637
10629.5000          0.0508          0.1816          2.4280          1.0000       3483.4285       1830.3669          0.7203
10630.0000          0.0136          0.1974          2.4120          1.0000       3479.4521       1826.9397          0.9311
10630.5000          0.0000          0.2250          2.4080          1.0000       3259.8931       1637.7018          1.0000
10631.0000          0.0000          0.2471          2.4030          1.0000       2973.6584       1390.9961          1.0000
10631.5000          0.0000          0.2500          2.3900          1.0000       3038.8833       1447.2134          1.0000
10632.0000          0.0000          0.2063          2.3960          1.0000       3122.9507       1519.6711          1.0000
10632.5000          0.0000          0.1914          2.4200          1.0000       3191.6230       1578.8599          1.0000
10633.0000          0.0000          0.2433          2.3790          1.0000       3295.1353       1668.0770          1.0000
10633.5000          0.0000          0.2674          2.3990          1.0000       3132.5796       1527.9702          1.0000
