~VERSION INFORMATION
 VERS.                          2.0   : CWLS LOG ASCII STANDARD - VERSION 2.0
 WRAP.                          NO    : ONE LINE PER DEPTH STEP
#
~Well Information Section
#MNEM     .UNIT     DATA                DESCRIPTION
#-----    -----     --------            --------------
 STRT     .F        10535.0000          : START DEPTH
 STOP     .F        11400.0000          : END DEPTH
 STEP     .F        0.5000              : INCREMENT DEPTH
 NULL     .         -999.2500           : NULL VALUE
 COMP     .                             :
 WELL     .         WELL                : WELL NAME
 EKB      .F        60.0000             : KELLY BUSHING ELEVATION
 EGL      .F        0.0000              : GROUND LEVEL ELEVATION
 FLD      .                              :
 LOC      . X = 529090.0000 Y = 179645.0000: WELL LOCATION
 PROV     .                              :
 SRVC     .                              :
 PROV     .                              :
 DATE     .                              :
 UWI      .         UNIQUE WELL ID       : UNIQUE WELL ID
 API      .                              :
#
~Curve Information Section
#MNEM     .UNIT               Curve #DESCRIPTION
#-----    -----               ----   --------------
 DEPTH    .F                  : 1     Name = Domain Curve - Type = DEPTH
 PhiE     .fraction           : 2     Name = PhiE - Type = Porosity
 PhiT     .fraction           : 3     Name = PhiT - Type = Porosity
 RhoB     .g/c3               : 4     Name = RhoB - Type = Density
 Sw       .0.Sw               : 5     Name = Sw - Type = Water Saturation
 Vp       .m/s                : 6     Name = Vp - Type = P-wave
 Vs       .m/s                : 7     Name = Vs - Type = S-wave
 Vsh      .API                : 8     Name = Vsh - Type = Volumetric
~A (ASCII LOG DATA)
# ...
10634.0000          0.0000          0.2277          2.3900          1.0000       3097.5608       1497.7876          1.0000
10634.5000          0.0000          0.1886          2.4250          1.0000       3023.8093       1434.2212          1.0000
10635.0000          0.0000          0.1859          2.3940          1.0000       3215.1897       1599.1719          1.0000
10635.5000          0.0043          0.1734          2.4420          1.0000       3491.4089       1837.2452          0.9751
10636.0000          0.0794          0.1664          2.4030          1.0000       3417.0405       1773.1471          0.5226
10636.5000          0.0911          0.1669          2.4000          1.0000       3475.4849       1823.5203          0.4539
10637.0000          0.1379          0.1886          2.3900          1.0000       3420.8755       1776.4525          0.2690
10637.5000          0.1393          0.2024          2.4040          1.0000       3239.1074       1619.7866          0.3119
10638.0000          0.0517          0.1863          2.4240          1.0000       3221.9875       1605.0310          0.7224
10638.5000          0.0000          0.1880          2.3990          1.0000       3113.3811       1511.4231          1.0000
10639.0000          0.0000          0.1883          2.4150          1.0000       3145.5107       1539.1156          1.0000
10639.5000          0.0052          0.1964          2.3900          1.0000       3175.0000       1564.5325          0.9737
10640.0000          0.0757          0.1889          2.3790          1.0000       3165.1091       1556.0074          0.5994
10640.5000          0.0813          0.1821          2.3390          1.0000       3208.4211       1593.3381          0.5533
10641.0000          0.1220          0.1889          2.3320          1.0000       3191.6230       1578.8599          0.3543
10641.5000          0.1381          0.1866          2.4120          1.0000       3218.5850       1602.0983          0.2600
10642.0000          0.1523          0.1929          2.4170          1.0000       3161.8254       1553.1772          0.2106
10642.5000          0.0938          0.2023          2.4300          1.0000       3284.4824       1658.8953          0.5365
10643.0000          0.0418          0.2104          2.4390          1.0000       3320.2615       1689.7333          0.8014
10643.5000          0.0000          0.2304          2.3950          1.0000       3205.0474       1590.4302          1.0000
10644.0000          0.0147          0.2305          2.3590          1.0000       3298.7012       1671.1504          0.9363
10644.5000          0.0000          0.1879          2.4340          1.0000       3256.4104       1634.7001          1.0000
10645.0000          0.0423          0.1966          2.4100          1.0000       3116.5645       1514.1669          0.7847
10645.5000          0.0000          0.2309          2.4240          1.0000       3139.0317       1533.5314          1.0000
10646.0000          0.0000          0.2423          2.4000          1.0000       3088.1462       1489.6732          1.0000
10646.5000          0.0000          0.2425          2.3800          1.0000       2950.6292       1371.1472          1.0000
10647.0000          0.0000          0.2519          2.3790          1.0000       2861.9719       1294.7335          1.0000
10647.5000          0.0197          0.2509          2.3970          1.0000       2889.0996       1318.1149          0.9216
10648.0000          0.0059          0.2368          2.4060          1.0000       2933.5898       1356.4611          0.9751
10648.5000          0.0000          0.2393          2.3430          1.0000       2856.6074       1290.1099          1.0000
10649.0000          0.0000          0.2466          2.3390          1.0000       2900.0952       1327.5920          1.0000
10649.5000          0.0000          0.2465          2.3530          1.0000       2822.2222       1260.4733          1.0000
10650.0000          0.0000          0.2606          2.3630          1.0000       2819.6116       1258.2231          1.0000
10650.5000          0.0000          0.2555          2.4050          1.0000       2886.3638       1315.7568          1.0000
10651.0000          0.0000          0.2488          2.4110          1.0000       2870.0566       1301.7018          1.0000
10651.5000          0.0000          0.2364          2.3970          1.0000       2886.3638       1315.7568          1.0000
10652.0000          0.0000          0.2225          2.3990          1.0000       2861.9719       1294.7335          1.0000
10652.5000          0.0000          0.2262          2.4110          1.0000       2859.2871       1292.4194          1.0000
10653.0000          0.0000          0.2432          2.3700          1.0000       2913.9578       1339.5402          1.0000
10653.5000          0.0000          0.2593          2.3750          1.0000       2856.6074       1290.1099          1.0000
10654.0000          0.0000          0.2202          2.4520          1.0000       2982.3875       1398.5197          1.0000
10654.5000          0.0000          0.1700          2.5080          1.0000       3122.9507       1519.6711          1.0000
10655.0000          0.0170          0.1556          2.5220          1.0000       3218.5850       1602.0983          0.8905
10655.5000          0.0664          0.1713          2.4670          1.0000       3420.8755       1776.4525          0.6121
10656.0000          0.0809          0.1854          2.3860          1.0000       3371.6814       1734.0521          0.5637
10656.5000          0.0614          0.1824          2.3590          1.0000       3428.5715       1783.0857          0.6633
10657.0000          0.0359          0.2157          2.3700          1.0000       3413.2136       1769.8488          0.8334
10657.5000          0.1022          0.2811          2.3790          1.0000       3155.2795       1547.5354          0.6364
10658.0000          0.1218          0.2721          2.3650          1.0000       3000.0000       1413.7000          0.5522
10658.5000          0.0000          0.2607          2.3550          1.0000       2837.9888       1274.0625          1.0000
10659.0000          0.0000          0.2596          2.4110          1.0000       2806.6299       1247.0342          1.0000
10659.5000          0.0000          0.2725          2.3880          1.0000       2793.7671       1235.9478          1.0000
10660.0000          0.0000          0.2628          2.3440          1.0000       2791.2090       1233.7429          1.0000
10660.5000          0.0000          0.2363          2.3640          1.0000       2775.9561       1220.5964          1.0000
10661.0000          0.0000          0.2572          2.3820          1.0000       2786.1062       1229.3448          1.0000
10661.5000          0.0000          0.2854          2.3140          1.0000       2685.4624       1142.6000          1.0000
10662.0000          0.0000          0.2958          2.3440          1.0000       2659.6858       1120.3831          1.0000
10662.5000          0.0000          0.3041          2.3020          1.0000       2685.4624       1142.6000          1.0000
10663.0000          0.0000          0.2870          2.3180          1.0000       2645.8335       1108.4438          1.0000
10663.5000          0.0000          0.2894          2.3210          1.0000       2690.2031       1146.6860          1.0000
10664.0000          0.0000          0.2495          2.3310          1.0000       2726.2971       1177.7954          1.0000
10664.5000          0.0000          0.2007          2.3840          1.0000       2616.3091       1082.9967          1.0000
10665.0000          0.0000          0.1954          2.3320          1.0000       2719.0010       1171.5068          1.0000
10665.5000          0.0263          0.1808          2.4420          1.0000       2827.4583       1264.9862          0.8546
10666.0000          0.0787          0.1754          2.4470          1.0000       3017.8218       1429.0605          0.5516
10666.5000          0.1367          0.1837          2.4360          1.0000       3091.2781       1492.3724          0.2558
